,station_id,station_name,station_latitude,station_longitude,gender_male,gender_female,gender_unknown,subscriber,customer,total_uses,station_type,date
0,72.0,W 52 St & 11 Ave,40.76727216,-73.99392888,2923,928,493,3577,767,4344,1,08/01/2018
1,79.0,Franklin St & W Broadway,40.71911552,-74.00666661,1931,674,323,2522,406,2928,1,08/01/2018
2,82.0,St James Pl & Pearl St,40.71117416,-74.00016545,798,248,45,1038,53,1091,1,08/01/2018
3,83.0,Atlantic Ave & Fort Greene Pl,40.68382604,-73.97632328,1287,454,212,1662,291,1953,1,08/01/2018
4,119.0,Park Ave & St Edwards St,40.69608941,-73.97803415,209,87,35,278,53,331,1,08/01/2018
5,120.0,Lexington Ave & Classon Ave,40.68676793,-73.95928168,722,407,72,1109,92,1201,1,08/01/2018
6,127.0,Barrow St & Hudson St,40.73172428,-74.00674436,4510,1568,400,5918,560,6478,1,08/01/2018
7,128.0,MacDougal St & Prince St,40.72710258,-74.00297088,4580,1934,535,6328,721,7049,1,08/01/2018
8,143.0,Clinton St & Joralemon St,40.69239502,-73.99337909,1578,748,91,2308,109,2417,1,08/01/2018
9,144.0,Nassau St & Navy St,40.69839895,-73.98068914,607,313,295,854,361,1215,1,08/01/2018
10,146.0,Hudson St & Reade St,40.71625008,-74.0091059,2280,815,215,3047,263,3310,1,08/01/2018
11,150.0,E 2 St & Avenue C,40.720873600000004,-73.98085795,2275,969,125,3169,200,3369,1,08/01/2018
12,151.0,Cleveland Pl & Spring St,40.72210378668603,-73.99724900722505,5455,2101,1012,7344,1224,8568,1,08/01/2018
13,157.0,Henry St & Atlantic Ave,40.69089272,-73.99612349,1302,683,205,1969,221,2190,1,08/01/2018
14,164.0,E 47 St & 2 Ave,40.75323098,-73.97032517,2156,797,186,2845,294,3139,1,08/01/2018
15,167.0,E 39 St & 3 Ave,40.7489006,-73.97604882,3783,825,301,4439,470,4909,1,08/01/2018
16,168.0,W 18 St & 6 Ave,40.73971301,-73.99456405,5689,1809,440,7402,536,7938,1,08/01/2018
17,173.0,Broadway & W 49 St,40.76068327096592,-73.98452728986742,4980,1104,933,5818,1199,7017,1,08/01/2018
18,174.0,E 25 St & 1 Ave,40.7381765,-73.97738662,2293,896,140,3099,230,3329,1,08/01/2018
19,195.0,Liberty St & Broadway,40.70905623,-74.01043382,3258,741,567,3846,720,4566,1,08/01/2018
20,212.0,W 16 St & The High Line,40.74334935,-74.00681753,3030,1085,543,3902,756,4658,1,08/01/2018
21,216.0,Columbia Heights & Cranberry St,40.70037867,-73.99548059,471,175,278,601,323,924,1,08/01/2018
22,217.0,Old Fulton St,40.70277159,-73.99383605,1592,828,1467,1858,2029,3887,1,08/01/2018
23,223.0,W 13 St & 7 Ave,40.73781509,-73.99994661,3389,1046,227,4344,318,4662,1,08/01/2018
24,228.0,E 48 St & 3 Ave,40.7546011026,-73.971878855,2283,479,266,2636,392,3028,1,08/01/2018
25,229.0,Great Jones St,40.72743423,-73.99379025,5882,2276,500,7986,672,8658,1,08/01/2018
26,232.0,Cadman Plaza E & Tillary St,40.69597683,-73.99014892,859,296,738,943,950,1893,1,08/01/2018
27,236.0,St Marks Pl & 2 Ave,40.7284186,-73.98713956,3637,1409,516,4959,603,5562,1,08/01/2018
28,237.0,E 11 St & 2 Ave,40.73047309,-73.98672378,4094,1644,219,5606,351,5957,1,08/01/2018
29,238.0,Bank St & Washington St,40.7361967,-74.00859207,2146,904,403,2818,635,3453,1,08/01/2018
30,239.0,Willoughby St & Fleet St,40.69196566,-73.9813018,1715,840,111,2524,142,2666,1,08/01/2018
31,241.0,DeKalb Ave & S Portland Ave,40.68981035,-73.97493121,968,486,140,1419,175,1594,1,08/01/2018
32,242.0,Carlton Ave & Flushing Ave,40.697787,-73.973736,759,265,128,962,190,1152,1,08/01/2018
33,243.0,Fulton St & Rockwell Pl,40.688226,-73.979382,931,368,36,1283,52,1335,1,08/01/2018
34,244.0,Willoughby Ave & Hall St,40.69196035,-73.96536851,1071,574,98,1642,101,1743,1,08/01/2018
35,245.0,Myrtle Ave & St Edwards St,40.69327018,-73.97703874,550,263,87,772,128,900,1,08/01/2018
36,247.0,Perry St & Bleecker St,40.73535398,-74.00483091,1847,661,234,2400,342,2742,1,08/01/2018
37,248.0,Laight St & Hudson St,40.72185379,-74.00771779,926,254,74,1124,130,1254,1,08/01/2018
38,249.0,Harrison St & Hudson St,40.71870987,-74.0090009,1168,400,119,1539,148,1687,1,08/01/2018
39,251.0,Mott St & Prince St,40.72317958,-73.99480012,4158,1684,495,5612,725,6337,1,08/01/2018
40,252.0,MacDougal St & Washington Sq,40.73226398,-73.99852205,2471,886,454,3185,626,3811,1,08/01/2018
41,253.0,W 13 St & 5 Ave,40.73543934,-73.99453948,1,2,0,3,0,3,1,08/01/2018
42,254.0,W 11 St & 6 Ave,40.73532427,-73.99800419,2024,882,165,2840,231,3071,1,08/01/2018
43,257.0,Lispenard St & Broadway,40.71939226,-74.00247214,2817,815,351,3501,482,3983,1,08/01/2018
44,258.0,DeKalb Ave & Vanderbilt Ave,40.68940747,-73.96885458,1246,641,101,1825,163,1988,1,08/01/2018
45,259.0,South St & Whitehall St,40.70122128,-74.01234218,2265,914,918,2857,1240,4097,1,08/01/2018
46,260.0,Broad St & Bridge St,40.70365182,-74.01167797,1115,361,178,1418,236,1654,1,08/01/2018
47,261.0,Johnson St & Gold St,40.69474881,-73.98362464,1039,412,179,1391,239,1630,1,08/01/2018
48,262.0,Washington Park,40.6917823,-73.97372990000001,796,436,90,1216,106,1322,1,08/01/2018
49,264.0,Maiden Ln & Pearl St,40.70706456,-74.00731853,1929,601,235,2449,316,2765,1,08/01/2018
50,265.0,Stanton St & Chrystie St,40.72229346,-73.99147535,3439,1430,465,4750,584,5334,1,08/01/2018
51,266.0,Avenue D & E 8 St,40.72368361,-73.97574813,1230,733,148,1932,179,2111,1,08/01/2018
52,267.0,Broadway & W 36 St,40.75097711,-73.98765428,3112,709,501,3644,678,4322,1,08/01/2018
53,268.0,Howard St & Centre St,40.71910537,-73.99973337,3023,1187,551,4000,761,4761,1,08/01/2018
54,270.0,Adelphi St & Myrtle Ave,40.69308257,-73.97178913,1276,658,69,1900,103,2003,1,08/01/2018
55,274.0,Lafayette Ave & Fort Greene Pl,40.68691865,-73.976682,1314,663,127,1916,188,2104,1,08/01/2018
56,275.0,Washington Ave & Greene Ave,40.68650065,-73.96563307,816,359,77,1164,88,1252,1,08/01/2018
57,276.0,Duane St & Greenwich St,40.71748752,-74.0104554,1560,536,160,2019,237,2256,1,08/01/2018
58,278.0,Concord St & Bridge St,40.69766564,-73.98476437,509,340,146,780,215,995,1,08/01/2018
59,279.0,Peck Slip & Front St,40.707873,-74.00166999999999,2114,960,746,2780,1040,3820,1,08/01/2018
60,280.0,E 10 St & 5 Ave,40.73331967,-73.99510132,2039,831,289,2794,365,3159,1,08/01/2018
61,281.0,Grand Army Plaza & Central Park S,40.764397100000004,-73.97371465,4390,1463,4165,5157,4861,10018,1,08/01/2018
62,282.0,Kent Ave & S 11 St,40.7076449441757,-73.96841526031494,1045,610,438,1559,534,2093,1,08/01/2018
63,285.0,Broadway & E 14 St,40.73454567,-73.99074142,7075,2508,764,9342,1005,10347,1,08/01/2018
64,289.0,Monroe St & Classon Ave,40.684568299999995,-73.95881081,588,375,75,950,88,1038,1,08/01/2018
65,291.0,Madison St & Montgomery St,40.713126,-73.984844,1279,335,121,1601,134,1735,1,08/01/2018
66,293.0,Lafayette St & E 8 St,40.73020660529954,-73.99102628231049,6135,2276,836,8204,1043,9247,1,08/01/2018
67,295.0,Pike St & E Broadway,40.71406667,-73.99293911,1915,818,265,2757,241,2998,1,08/01/2018
68,296.0,Division St & Bowery,40.71413089,-73.99704679999999,2687,872,419,3458,520,3978,1,08/01/2018
69,297.0,E 15 St & 3 Ave,40.734232,-73.986923,3975,1414,247,5275,361,5636,1,08/01/2018
70,298.0,3 Ave & Schermerhorn St,40.68683208,-73.9796772,1107,439,121,1485,182,1667,1,08/01/2018
71,301.0,E 2 St & Avenue B,40.72217444,-73.98368779,2668,1164,266,3753,345,4098,1,08/01/2018
72,302.0,Avenue D & E 3 St,40.72082834,-73.97793172,1417,745,82,2123,121,2244,1,08/01/2018
73,303.0,Mercer St & Spring St,40.72362738,-73.99949601,2510,965,489,3291,673,3964,1,08/01/2018
74,304.0,Broadway & Battery Pl,40.70463334,-74.01361706,3338,1214,876,4224,1204,5428,1,08/01/2018
75,305.0,E 58 St & 3 Ave,40.76095756,-73.96724467,3288,741,325,3956,398,4354,1,08/01/2018
76,306.0,Cliff St & Fulton St_1,40.70823502,-74.00530063,944,266,123,1166,167,1333,1,08/01/2018
77,307.0,Canal St & Rutgers St,40.71427487,-73.98990025,3066,1239,315,4289,331,4620,1,08/01/2018
78,308.0,St James Pl & Oliver St,40.71307916,-73.99851193,1666,549,299,2166,348,2514,1,08/01/2018
79,309.0,Murray St & West St,40.7149787,-74.013012,2304,760,555,2862,757,3619,1,08/01/2018
80,310.0,State St & Smith St,40.68926942,-73.98912867,1321,487,119,1768,159,1927,1,08/01/2018
81,311.0,Norfolk St & Broome St,40.7172274,-73.98802084,2510,849,349,3235,473,3708,1,08/01/2018
82,312.0,Allen St & Stanton St,40.722055,-73.989111,3779,1577,575,5160,771,5931,1,08/01/2018
83,313.0,Washington Ave & Park Ave,40.69610226,-73.96751037,1029,408,169,1439,167,1606,1,08/01/2018
84,314.0,Cadman Plaza West & Montague St,40.69383,-73.990539,1482,608,200,2027,263,2290,1,08/01/2018
85,315.0,South St & Gouverneur Ln,40.70355377,-74.00670227,3663,1647,995,4960,1345,6305,1,08/01/2018
86,316.0,Fulton St & William St,40.70955958,-74.00653609,1938,619,262,2455,364,2819,1,08/01/2018
87,317.0,E 6 St & Avenue B,40.72453734,-73.98185424,2362,1244,187,3552,241,3793,1,08/01/2018
88,319.0,Fulton St & Broadway,40.711065999999995,-74.009447,3508,859,765,4121,1011,5132,1,08/01/2018
89,320.0,Leonard St & Church St,40.717571,-74.005549,1784,543,162,2262,227,2489,1,08/01/2018
90,321.0,Cadman Plaza E & Red Cross Pl,40.69991755,-73.98971773,1298,636,804,1685,1053,2738,1,08/01/2018
91,322.0,Clinton St & Tillary St,40.696191999999996,-73.991218,956,352,455,1200,563,1763,1,08/01/2018
92,323.0,Lawrence St & Willoughby St,40.69236178,-73.98631746,1758,577,152,2280,207,2487,1,08/01/2018
93,324.0,DeKalb Ave & Hudson Ave,40.689888,-73.981013,1697,611,152,2268,192,2460,1,08/01/2018
94,325.0,E 19 St & 3 Ave,40.73624527,-73.98473765,2663,928,157,3533,215,3748,1,08/01/2018
95,326.0,E 11 St & 1 Ave,40.72953837,-73.98426726,3456,1270,371,4584,513,5097,1,08/01/2018
96,327.0,Vesey Pl & River Terrace,40.715337899999994,-74.01658354,5245,1618,928,6493,1298,7791,1,08/01/2018
97,328.0,Watts St & Greenwich St,40.72405549,-74.00965965,2929,859,313,3589,512,4101,1,08/01/2018
98,330.0,Reade St & Broadway,40.71450451,-74.00562789,2019,575,285,2526,353,2879,1,08/01/2018
99,331.0,Pike St & Monroe St,40.71173107,-73.99193043,1283,554,227,1842,222,2064,1,08/01/2018
100,332.0,Cherry St,40.71219906,-73.97948148,1265,587,238,1760,330,2090,1,08/01/2018
101,334.0,W 20 St & 7 Ave,40.74238787,-73.99726235,3999,1109,199,5073,234,5307,1,08/01/2018
102,335.0,Washington Pl & Broadway,40.72903917,-73.99404649,2461,813,285,3208,351,3559,1,08/01/2018
103,336.0,Sullivan St & Washington Sq,40.73047747,-73.99906065,4796,1730,634,6235,925,7160,1,08/01/2018
104,337.0,Old Slip & Front St,40.703799200000006,-74.00838676,1641,394,155,1946,244,2190,1,08/01/2018
105,339.0,Avenue D & E 12 St,40.72580614,-73.97422494,1103,550,89,1619,123,1742,1,08/01/2018
106,340.0,Madison St & Clinton St,40.71269042,-73.98776323,1377,782,277,2234,202,2436,1,08/01/2018
107,341.0,Stanton St & Mangin St,40.71782143,-73.97628939,991,512,128,1437,194,1631,1,08/01/2018
108,342.0,Columbia St & Rivington St,40.71739973,-73.98016555,1053,755,106,1798,116,1914,1,08/01/2018
109,343.0,Clinton Ave & Flushing Ave,40.69794,-73.96986848,459,202,239,605,295,900,1,08/01/2018
110,344.0,Monroe St & Bedford Ave,40.6851443,-73.95380904,675,553,105,1222,111,1333,1,08/01/2018
111,345.0,W 13 St & 6 Ave,40.73649403,-73.99704374,4003,1539,359,5411,490,5901,1,08/01/2018
112,346.0,Bank St & Hudson St,40.73652889,-74.00618026,2216,986,250,3077,375,3452,1,08/01/2018
113,347.0,Greenwich St & W Houston St,40.728846000000004,-74.00859100000001,4442,1467,465,5679,695,6374,1,08/01/2018
114,349.0,Rivington St & Ridge St,40.71850211,-73.98329859,1444,568,185,1975,222,2197,1,08/01/2018
115,350.0,Clinton St & Grand St,40.71559509,-73.9870295,2169,1159,234,3274,288,3562,1,08/01/2018
116,351.0,Front St & Maiden Ln,40.70530954,-74.00612572,2111,667,393,2624,547,3171,1,08/01/2018
117,353.0,S Portland Ave & Hanson Pl,40.68539567,-73.97431458,803,407,70,1171,109,1280,1,08/01/2018
118,354.0,Emerson Pl & Myrtle Ave,40.69363137,-73.96223558,1017,474,121,1448,164,1612,1,08/01/2018
119,355.0,Bayard St & Baxter St,40.71602118,-73.99974372,2412,936,371,3207,512,3719,1,08/01/2018
120,356.0,Bialystoker Pl & Delancey St,40.71622644,-73.98261206,1267,650,142,1887,172,2059,1,08/01/2018
121,357.0,E 11 St & Broadway,40.73261787,-73.99158043,1598,624,153,2166,209,2375,1,08/01/2018
122,358.0,Christopher St & Greenwich St,40.73291553,-74.00711384,5989,2058,670,7772,945,8717,1,08/01/2018
123,359.0,E 47 St & Park Ave,40.75510267,-73.97498696,6400,824,447,7119,552,7671,1,08/01/2018
124,360.0,William St & Pine St,40.70717936,-74.00887308,1566,575,209,2043,307,2350,1,08/01/2018
125,361.0,Allen St & Hester St,40.71605866,-73.99190759,3600,1433,366,5011,388,5399,1,08/01/2018
126,362.0,Broadway & W 37 St,40.75172632,-73.98753523,1344,305,302,1659,292,1951,1,08/01/2018
127,363.0,West Thames St,40.70834698,-74.01713445,3115,1229,478,4139,683,4822,1,08/01/2018
128,364.0,Lafayette Ave & Classon Ave,40.68900443,-73.96023854,1218,594,112,1783,141,1924,1,08/01/2018
129,365.0,Fulton St & Grand Ave,40.68223166,-73.9614583,808,412,99,1211,108,1319,1,08/01/2018
130,366.0,Clinton Ave & Myrtle Ave,40.693261,-73.968896,1523,753,118,2212,182,2394,1,08/01/2018
131,368.0,Carmine St & 6 Ave,40.73038599,-74.00214988,6426,2146,852,8203,1221,9424,1,08/01/2018
132,369.0,Washington Pl & 6 Ave,40.73224119,-74.00026394,2208,754,261,2849,374,3223,1,08/01/2018
133,372.0,Franklin Ave & Myrtle Ave,40.694546087246025,-73.95801365375519,445,213,120,613,165,778,1,08/01/2018
134,373.0,Willoughby Ave & Walworth St,40.69331716,-73.95381995,408,117,30,493,62,555,1,08/01/2018
135,376.0,John St & William St,40.70862144,-74.00722156,1975,543,82,2483,117,2600,1,08/01/2018
136,377.0,6 Ave & Canal St,40.72243797,-74.00566443,3571,956,494,4386,635,5021,1,08/01/2018
137,379.0,W 31 St & 7 Ave,40.749156,-73.9916,6122,1372,408,7305,597,7902,1,08/01/2018
138,380.0,W 4 St & 7 Ave S,40.73401143,-74.00293877,4039,1418,605,5246,816,6062,1,08/01/2018
139,382.0,University Pl & E 14 St,40.73492695,-73.99200509,6044,2093,584,7998,723,8721,1,08/01/2018
140,383.0,Greenwich Ave & Charles St,40.735238,-74.000271,3447,1294,334,4637,438,5075,1,08/01/2018
141,386.0,Centre St & Worth St,40.71494807,-74.00234482,1847,714,599,2391,769,3160,1,08/01/2018
142,387.0,Centre St & Chambers St,40.71273266,-74.0046073,3882,1750,3455,4692,4395,9087,1,08/01/2018
143,388.0,W 26 St & 10 Ave,40.749717753,-74.002950346,2545,1078,263,3534,352,3886,1,08/01/2018
144,389.0,Broadway & Berry St,40.71044554,-73.96525063,1515,810,227,2198,354,2552,1,08/01/2018
145,390.0,Duffield St & Willoughby St,40.69221589,-73.9842844,1568,382,146,1876,220,2096,1,08/01/2018
146,391.0,Clark St & Henry St,40.69760127,-73.99344559,2054,863,278,2862,333,3195,1,08/01/2018
147,392.0,Jay St & Tech Pl,40.695065,-73.987167,1240,581,578,1697,702,2399,1,08/01/2018
148,393.0,E 5 St & Avenue C,40.72299208,-73.97995466,1465,719,93,2118,159,2277,1,08/01/2018
149,394.0,E 9 St & Avenue C,40.72521311,-73.97768752,2699,1217,168,3802,282,4084,1,08/01/2018
150,396.0,Lefferts Pl & Franklin Ave,40.680342423,-73.9557689392,625,224,94,852,91,943,1,08/01/2018
151,397.0,Fulton St & Clermont Ave,40.68415748,-73.96922273,592,257,75,847,77,924,1,08/01/2018
152,398.0,Atlantic Ave & Furman St,40.69165183,-73.99997859999999,1419,785,608,2011,801,2812,1,08/01/2018
153,399.0,Lafayette Ave & St James Pl,40.68851534,-73.9647628,1115,529,98,1634,108,1742,1,08/01/2018
154,400.0,Pitt St & Stanton St,40.71926081,-73.98178024,739,298,95,1054,78,1132,1,08/01/2018
155,401.0,Allen St & Rivington St,40.72019576,-73.98997825,3683,1475,409,5022,545,5567,1,08/01/2018
156,402.0,Broadway & E 22 St,40.740343200000005,-73.98955109,8185,2676,766,10718,909,11627,1,08/01/2018
157,403.0,E 2 St & 2 Ave,40.72502876,-73.99069656,3903,1723,434,5458,602,6060,1,08/01/2018
158,405.0,Washington St & Gansevoort St,40.739323,-74.008119,3902,1535,1223,4942,1718,6660,1,08/01/2018
159,406.0,Hicks St & Montague St,40.69512845,-73.99595065,1419,683,176,2045,233,2278,1,08/01/2018
160,407.0,Henry St & Poplar St,40.700469,-73.991454,550,151,122,689,134,823,1,08/01/2018
161,408.0,Market St & Cherry St,40.71076228,-73.99400398,1446,425,242,1876,237,2113,1,08/01/2018
162,409.0,DeKalb Ave & Skillman St,40.6906495,-73.95643107,577,343,123,902,141,1043,1,08/01/2018
163,410.0,Suffolk St & Stanton St,40.72066442,-73.98517977,3268,1302,411,4426,555,4981,1,08/01/2018
164,411.0,E 6 St & Avenue D,40.72228087,-73.97668709,1262,663,112,1889,148,2037,1,08/01/2018
165,412.0,Forsyth St & Canal St,40.715815500000005,-73.99422366,3035,1099,692,4009,817,4826,1,08/01/2018
166,414.0,Pearl St & Anchorage Pl,40.70281858,-73.98765762,1364,454,282,1683,417,2100,1,08/01/2018
167,415.0,Pearl St & Hanover Square,40.7047177,-74.00926027,1903,641,270,2462,352,2814,1,08/01/2018
168,416.0,Cumberland St & Lafayette Ave,40.68753406,-73.97265183,999,508,75,1476,106,1582,1,08/01/2018
169,417.0,Barclay St & Church St,40.71291224,-74.01020234,3602,933,496,4410,621,5031,1,08/01/2018
170,418.0,Front St & Gold St,40.70224,-73.982578,883,377,176,1242,194,1436,1,08/01/2018
171,419.0,Carlton Ave & Park Ave,40.69580705,-73.97355569,477,268,46,724,67,791,1,08/01/2018
172,420.0,Clermont Ave & Lafayette Ave,40.68764484,-73.96968902,727,333,91,1080,71,1151,1,08/01/2018
173,421.0,Clermont Ave & Park Ave,40.69573398,-73.97129668,521,262,59,786,56,842,1,08/01/2018
174,422.0,W 59 St & 10 Ave,40.770513,-73.988038,2383,725,212,2995,325,3320,1,08/01/2018
175,423.0,W 54 St & 9 Ave,40.76584941,-73.98690506,2679,698,318,3241,454,3695,1,08/01/2018
176,426.0,West St & Chambers St,40.71754834,-74.01322069,6797,3208,1797,9249,2553,11802,1,08/01/2018
177,427.0,Bus Slip & State St,40.701907,-74.013942,1608,604,861,1870,1203,3073,1,08/01/2018
178,432.0,E 7 St & Avenue A,40.72621788,-73.98379855,4427,1678,370,5973,502,6475,1,08/01/2018
179,433.0,E 13 St & Avenue A,40.72955361,-73.98057249,3981,1549,297,5460,367,5827,1,08/01/2018
180,435.0,W 21 St & 6 Ave,40.74173969,-73.99415556,7651,2811,539,10344,657,11001,1,08/01/2018
181,436.0,Hancock St & Bedford Ave,40.68216564,-73.95399026,438,249,157,691,153,844,1,08/01/2018
182,437.0,Macon St & Nostrand Ave,40.6809833854,-73.9500479759,1152,448,110,1595,115,1710,1,08/01/2018
183,438.0,St Marks Pl & 1 Ave,40.72779126,-73.98564945,3548,1502,355,4897,508,5405,1,08/01/2018
184,440.0,E 45 St & 3 Ave,40.75255434,-73.97282625,2411,516,214,2861,280,3141,1,08/01/2018
185,441.0,E 52 St & 2 Ave,40.756014,-73.967416,2178,631,290,2793,306,3099,1,08/01/2018
186,442.0,W 27 St & 7 Ave,40.746646999999996,-73.993915,3742,1086,261,4710,379,5089,1,08/01/2018
187,443.0,Bedford Ave & S 9 St,40.70853074,-73.96408963,436,169,101,554,152,706,1,08/01/2018
188,445.0,E 10 St & Avenue A,40.72740794,-73.98142006,4945,1994,420,6792,567,7359,1,08/01/2018
189,446.0,W 24 St & 7 Ave,40.74487634,-73.99529885,5168,1804,356,6889,439,7328,1,08/01/2018
190,447.0,8 Ave & W 52 St,40.76370739,-73.9851615,3445,890,438,4170,603,4773,1,08/01/2018
191,448.0,W 37 St & 10 Ave,40.75660359,-73.9979009,4103,1102,288,4978,515,5493,1,08/01/2018
192,450.0,W 49 St & 8 Ave,40.76227205,-73.98788205,4617,879,344,5339,501,5840,1,08/01/2018
193,453.0,W 22 St & 8 Ave,40.74475148,-73.99915362,4355,1473,358,5702,484,6186,1,08/01/2018
194,454.0,E 51 St & 1 Ave,40.75455731,-73.96592976,1642,472,144,2048,210,2258,1,08/01/2018
195,455.0,1 Ave & E 44 St,40.75001986,-73.96905301,2187,780,436,2878,525,3403,1,08/01/2018
196,456.0,E 53 St & Madison Ave,40.75971079999999,-73.97402311,2553,546,316,2985,430,3415,1,08/01/2018
197,457.0,Broadway & W 58 St,40.76695317,-73.98169333,5215,1755,1086,6518,1538,8056,1,08/01/2018
198,458.0,11 Ave & W 27 St,40.751396,-74.00522600000001,4570,1705,647,6003,919,6922,1,08/01/2018
199,459.0,W 20 St & 11 Ave,40.746745000000004,-74.007756,6556,2345,1078,8377,1602,9979,1,08/01/2018
200,460.0,S 4 St & Wythe Ave,40.71285887,-73.96590294,2694,1450,487,3887,744,4631,1,08/01/2018
201,461.0,E 20 St & 2 Ave,40.73587678,-73.98205027,3333,1250,290,4488,385,4873,1,08/01/2018
202,462.0,W 22 St & 10 Ave,40.74691959,-74.00451887,4078,1490,493,5466,595,6061,1,08/01/2018
203,465.0,Broadway & W 41 St,40.75513557,-73.98658032,5548,1156,199,6434,469,6903,1,08/01/2018
204,466.0,W 25 St & 6 Ave,40.74395411,-73.99144871,4237,1264,343,5374,470,5844,1,08/01/2018
205,467.0,Dean St & 4 Ave,40.68312489,-73.97895137,1872,682,165,2555,164,2719,1,08/01/2018
206,468.0,Broadway & W 56 St,40.7652654,-73.98192338,3544,989,498,4379,652,5031,1,08/01/2018
207,469.0,Broadway & W 53 St,40.76344058,-73.98268129,2673,756,392,3318,503,3821,1,08/01/2018
208,470.0,W 20 St & 8 Ave,40.74345335,-74.00004031,3173,930,302,3999,406,4405,1,08/01/2018
209,471.0,Grand St & Havemeyer St,40.71286844,-73.95698119,1503,822,223,2246,302,2548,1,08/01/2018
210,472.0,E 32 St & Park Ave,40.745712100000006,-73.98194829,4568,1228,344,5720,420,6140,1,08/01/2018
211,473.0,Rivington St & Chrystie St,40.72110063,-73.99192540000001,1896,813,319,2596,432,3028,1,08/01/2018
212,474.0,5 Ave & E 29 St,40.7451677,-73.98683077,4201,1040,434,5038,637,5675,1,08/01/2018
213,476.0,E 31 St & 3 Ave,40.74394314,-73.97966069,3359,1103,255,4365,352,4717,1,08/01/2018
214,477.0,W 41 St & 8 Ave,40.75640548,-73.9900262,7216,1460,608,8462,822,9284,1,08/01/2018
215,478.0,11 Ave & W 41 St,40.76030096,-73.99884222,3862,1070,458,4692,698,5390,1,08/01/2018
216,479.0,9 Ave & W 45 St,40.76019252,-73.9912551,4769,1180,671,5732,888,6620,1,08/01/2018
217,480.0,W 53 St & 10 Ave,40.76669671,-73.99061728,2997,756,276,3648,381,4029,1,08/01/2018
218,481.0,S 3 St & Bedford Ave,40.71260486,-73.96264403,1655,864,265,2412,372,2784,1,08/01/2018
219,482.0,W 15 St & 7 Ave,40.73935542,-73.99931783,4418,1390,395,5804,399,6203,1,08/01/2018
220,483.0,E 12 St & 3 Ave,40.73223272,-73.98889957,3880,1390,327,5167,430,5597,1,08/01/2018
221,484.0,W 44 St & 5 Ave,40.75500254,-73.98014437,2472,462,343,2837,440,3277,1,08/01/2018
222,485.0,W 37 St & 5 Ave,40.75038009,-73.98338988,2892,621,370,3443,440,3883,1,08/01/2018
223,486.0,Broadway & W 29 St,40.7462009,-73.98855723,3930,1048,469,4801,646,5447,1,08/01/2018
224,487.0,E 20 St & FDR Drive,40.73314259,-73.97573881,3977,1576,282,5402,433,5835,1,08/01/2018
225,490.0,8 Ave & W 33 St,40.751551,-73.993934,7161,1606,705,8414,1058,9472,1,08/01/2018
226,491.0,E 24 St & Park Ave S,40.74096374,-73.98602213,5832,1761,827,7500,920,8420,1,08/01/2018
227,492.0,W 33 St & 7 Ave,40.75019995,-73.99093085,5499,1034,562,6399,696,7095,1,08/01/2018
228,493.0,W 45 St & 6 Ave,40.7568001,-73.98291153,231,57,20,275,33,308,1,08/01/2018
229,494.0,W 26 St & 8 Ave,40.74734825,-73.99723551,4290,1345,326,5538,423,5961,1,08/01/2018
230,495.0,W 47 St & 10 Ave,40.76269882,-73.99301222,3534,739,337,4151,459,4610,1,08/01/2018
231,496.0,E 16 St & 5 Ave,40.73726186,-73.99238967,4305,1615,344,5828,436,6264,1,08/01/2018
232,497.0,E 17 St & Broadway,40.73704984,-73.99009296,8412,3200,893,11280,1225,12505,1,08/01/2018
233,498.0,Broadway & W 32 St,40.74854862,-73.98808416,4445,1252,501,5573,625,6198,1,08/01/2018
234,499.0,Broadway & W 60 St,40.76915505,-73.98191841,5329,2104,1511,6775,2169,8944,1,08/01/2018
235,500.0,Broadway & W 51 St,40.76228826,-73.98336183,2550,648,362,3087,473,3560,1,08/01/2018
236,501.0,FDR Drive & E 35 St,40.744219,-73.97121214,3339,1187,613,4266,873,5139,1,08/01/2018
237,502.0,Henry St & Grand St,40.714215,-73.981346,1904,975,168,2866,181,3047,1,08/01/2018
238,503.0,E 20 St & Park Ave,40.73827428,-73.98751968,2987,908,234,3872,257,4129,1,08/01/2018
239,504.0,1 Ave & E 16 St,40.73221853,-73.98165557,4838,1925,178,6675,266,6941,1,08/01/2018
240,505.0,6 Ave & W 33 St,40.74901271,-73.98848395,6133,1401,724,7273,985,8258,1,08/01/2018
241,507.0,E 25 St & 2 Ave,40.73912601,-73.97973776,3671,1328,389,5018,370,5388,1,08/01/2018
242,508.0,W 46 St & 11 Ave,40.76341379,-73.99667444,2963,1065,498,3794,732,4526,1,08/01/2018
243,509.0,9 Ave & W 22 St,40.7454973,-74.00197139,4469,1311,487,5668,599,6267,1,08/01/2018
244,513.0,W 56 St & 10 Ave,40.768254,-73.988639,2576,569,205,3053,297,3350,1,08/01/2018
245,514.0,12 Ave & W 40 St,40.76087502,-74.00277668,6184,2875,2355,7919,3495,11414,1,08/01/2018
246,515.0,W 43 St & 10 Ave,40.76009437,-73.99461843,3694,1030,294,4598,420,5018,1,08/01/2018
247,516.0,E 47 St & 1 Ave,40.75206862,-73.96784384,1309,465,176,1727,223,1950,1,08/01/2018
248,517.0,Pershing Square South,40.751581,-73.97791,3627,592,266,4106,379,4485,1,08/01/2018
249,518.0,E 39 St & 2 Ave,40.74780373,-73.97344190000001,4183,1149,322,5169,485,5654,1,08/01/2018
250,519.0,Pershing Square North,40.751872999999996,-73.97770600000001,13254,2093,1061,15060,1348,16408,1,08/01/2018
251,520.0,W 52 St & 5 Ave,40.75992262,-73.97648516,4422,794,483,5087,612,5699,1,08/01/2018
252,522.0,E 51 St & Lexington Ave,40.75714758,-73.97207836,1770,494,276,2097,443,2540,1,08/01/2018
253,523.0,W 38 St & 8 Ave,40.75466591,-73.99138152,6421,1549,576,7822,724,8546,1,08/01/2018
254,524.0,W 43 St & 6 Ave,40.75527307,-73.98316936,3680,711,438,4272,557,4829,1,08/01/2018
255,525.0,W 34 St & 11 Ave,40.75594159,-74.0021163,2555,958,809,3166,1156,4322,1,08/01/2018
256,526.0,E 33 St & 5 Ave,40.74765947,-73.98490707,3345,821,521,3960,727,4687,1,08/01/2018
257,528.0,2 Ave & E 31 St,40.74290902,-73.97706058,3751,1334,305,4930,460,5390,1,08/01/2018
258,529.0,W 42 St & 8 Ave,40.75756989999999,-73.99098507,3911,765,434,4512,598,5110,1,08/01/2018
259,530.0,11 Ave & W 59 St,40.771522,-73.99054100000001,3789,1352,391,4866,666,5532,1,08/01/2018
260,531.0,Forsyth St & Broome St,40.71893904,-73.99266288,3276,1475,350,4619,482,5101,1,08/01/2018
261,532.0,S 5 Pl & S 5 St,40.710451,-73.960876,2422,1088,984,3144,1350,4494,1,08/01/2018
262,533.0,Broadway & W 38 St,40.75299641,-73.98721619,3278,829,434,3948,593,4541,1,08/01/2018
263,534.0,Water - Whitehall Plaza,40.70255065,-74.0127234,1520,480,309,1889,420,2309,1,08/01/2018
264,536.0,1 Ave & E 30 St,40.74144387,-73.97536082,2952,1157,295,4095,309,4404,1,08/01/2018
265,537.0,Lexington Ave & E 24 St,40.74025878,-73.98409214,5001,1486,297,6334,450,6784,1,08/01/2018
266,539.0,Metropolitan Ave & Bedford Ave,40.71534825,-73.96024116,3296,1662,467,4736,689,5425,1,08/01/2018
267,540.0,Lexington Ave & E 29 St,40.74311555376486,-73.98215353488922,3596,1116,258,4664,306,4970,1,08/01/2018
268,545.0,E 23 St & 1 Ave,40.736502,-73.97809472,3922,1255,253,5112,318,5430,1,08/01/2018
269,546.0,E 30 St & Park Ave S,40.74444921,-73.98303529,2998,971,404,3876,497,4373,1,08/01/2018
270,2000.0,Front St & Washington St,40.70255088,-73.98940236,2194,938,845,2831,1146,3977,1,08/01/2018
271,2002.0,Wythe Ave & Metropolitan Ave,40.716887,-73.96319799999999,2314,1129,434,3253,624,3877,1,08/01/2018
272,2003.0,1 Ave & E 18 St,40.73381219196632,-73.9805442094803,3554,1315,266,4752,383,5135,1,08/01/2018
273,2005.0,Railroad Ave & Kay Ave,40.70531194,-73.97100056,143,13,4,155,5,160,1,08/01/2018
274,2006.0,Central Park S & 6 Ave,40.76590936,-73.97634151,3855,1863,3436,4116,5038,9154,1,08/01/2018
275,2008.0,Little West St & 1 Pl,40.70569254,-74.01677685,3459,1608,1216,4524,1759,6283,1,08/01/2018
276,2009.0,Catherine St & Monroe St,40.71117444,-73.99682619,1742,818,184,2509,235,2744,1,08/01/2018
277,2010.0,Grand St & Greene St,40.72165481,-74.00234737,2542,875,435,3294,558,3852,1,08/01/2018
278,2012.0,E 27 St & 1 Ave,40.739445,-73.97680600000001,2414,1012,293,3469,250,3719,1,08/01/2018
279,2021.0,W 45 St & 8 Ave,40.75929124,-73.98859651,3413,892,597,4052,850,4902,1,08/01/2018
280,2022.0,E 60 St & York Ave,40.759107,-73.959223,802,274,177,1031,222,1253,1,08/01/2018
281,2023.0,E 55 St & Lexington Ave,40.75968085,-73.97031366,1668,347,207,1997,225,2222,1,08/01/2018
282,3002.0,South End Ave & Liberty St,40.711512,-74.01575600000001,5855,2371,1523,7591,2158,9749,1,08/01/2018
283,3016.0,Kent Ave & N 7 St,40.72036775298455,-73.96165072917937,2975,1486,871,4160,1172,5332,1,08/01/2018
284,3040.0,GOW Tech Shop,40.66979964220026,-73.99497985839844,1,0,0,1,0,1,1,08/01/2018
285,3041.0,Kingston Ave & Herkimer St,40.67890679,-73.94142771,455,259,67,678,103,781,1,08/01/2018
286,3042.0,Fulton St & Utica Ave,40.6794268,-73.92989109999999,480,231,122,651,182,833,1,08/01/2018
287,3043.0,Lewis Ave & Decatur St,40.6814598,-73.934903,255,154,77,378,108,486,1,08/01/2018
288,3044.0,Albany Ave & Fulton St,40.6800105,-73.938475,156,103,49,240,68,308,1,08/01/2018
289,3046.0,Marcus Garvey Blvd & Macon St,40.682601,-73.938037,351,220,54,547,78,625,1,08/01/2018
290,3047.0,Halsey St & Tompkins Ave,40.682368700000005,-73.944118,513,237,88,744,94,838,1,08/01/2018
291,3048.0,Putnam Ave & Nostrand Ave,40.684020000000004,-73.94977,283,209,14,484,22,506,1,08/01/2018
292,3049.0,Cambridge Pl & Gates Ave,40.68488,-73.96304,552,278,59,845,44,889,1,08/01/2018
293,3050.0,Putnam Ave & Throop Ave,40.6851532,-73.94111,481,185,69,638,97,735,1,08/01/2018
294,3052.0,Lewis Ave & Madison St,40.686312,-73.935775,539,311,85,783,152,935,1,08/01/2018
295,3053.0,Marcy Ave & Lafayette Ave,40.6900815,-73.94791500000001,439,170,92,579,122,701,1,08/01/2018
296,3054.0,Greene Ave & Throop Ave,40.6894932,-73.942061,413,174,43,568,62,630,1,08/01/2018
297,3055.0,Greene Ave & Nostrand Ave,40.68833370000001,-73.950916,441,271,72,688,96,784,1,08/01/2018
298,3056.0,Kosciuszko St & Nostrand Ave,40.69072549,-73.95133465,380,216,104,574,126,700,1,08/01/2018
299,3057.0,Kosciuszko St & Tompkins Ave,40.69128258,-73.9452416,577,259,62,802,96,898,1,08/01/2018
300,3058.0,Lewis Ave & Kosciuszko St,40.69237074,-73.93705428,474,268,84,664,162,826,1,08/01/2018
301,3059.0,Pulaski St & Marcus Garvey Blvd,40.693398200000004,-73.939877,234,144,61,367,72,439,1,08/01/2018
302,3060.0,Willoughby Ave & Tompkins Ave,40.69425403,-73.94626915,418,173,74,545,120,665,1,08/01/2018
303,3061.0,Throop Ave & Myrtle Ave,40.69622937,-73.94371094,254,115,27,352,44,396,1,08/01/2018
304,3062.0,Myrtle Ave & Marcy Ave,40.69539817,-73.94954908,469,195,63,637,90,727,1,08/01/2018
305,3063.0,Nostrand Ave & Myrtle Ave,40.69527008,-73.95238108,259,112,49,329,91,420,1,08/01/2018
306,3064.0,Myrtle Ave & Lewis Ave,40.69681963,-73.93756926,1172,465,196,1509,324,1833,1,08/01/2018
307,3065.0,Union Ave & Wallabout St,40.70029511,-73.95032283,273,154,60,381,106,487,1,08/01/2018
308,3066.0,Tompkins Ave & Hopkins St,40.69957608,-73.94708417,365,123,47,469,66,535,1,08/01/2018
309,3067.0,Broadway & Whipple St,40.7016657,-73.9437303,577,209,78,748,116,864,1,08/01/2018
310,3068.0,Humboldt St & Varet St,40.7031724,-73.940636,588,216,173,746,231,977,1,08/01/2018
311,3069.0,Lorimer St & Broadway,40.70411791,-73.94818595,274,133,79,375,111,486,1,08/01/2018
312,3070.0,McKibbin St & Manhattan Ave,40.70510918,-73.94407279,406,169,35,538,72,610,1,08/01/2018
313,3071.0,Boerum St & Broadway,40.70538077,-73.94976519,454,188,109,602,149,751,1,08/01/2018
314,3072.0,Leonard St & Boerum St,40.70583339,-73.94644578,453,122,81,563,93,656,1,08/01/2018
315,3075.0,Division Ave & Marcy Ave,40.70708701,-73.95796783,299,114,71,395,89,484,1,08/01/2018
316,3076.0,Scholes St & Manhattan Ave,40.70870368,-73.9448625,1045,531,99,1484,191,1675,1,08/01/2018
317,3077.0,Stagg St & Union Ave,40.70877084,-73.95095259,1015,602,28,1548,97,1645,1,08/01/2018
318,3078.0,Broadway & Roebling St,40.70924826276157,-73.96063148975372,1281,615,172,1802,266,2068,1,08/01/2018
319,3080.0,S 4 St & Rodney St,40.709340000000005,-73.95608,923,388,98,1233,176,1409,1,08/01/2018
320,3081.0,Graham Ave & Grand St,40.711863,-73.944024,827,416,67,1154,156,1310,1,08/01/2018
321,3082.0,Hope St & Union Ave,40.71167351,-73.95141312,1127,566,192,1607,278,1885,1,08/01/2018
322,3083.0,Bushwick Ave & Powers St,40.71247661,-73.94100005,930,463,166,1311,248,1559,1,08/01/2018
323,3085.0,Roebling St & N 4 St,40.714690000000004,-73.95739,73,37,6,108,8,116,1,08/01/2018
324,3086.0,Graham Ave & Conselyea St,40.715143,-73.944507,1707,927,80,2572,142,2714,1,08/01/2018
325,3087.0,Metropolitan Ave & Meeker Ave,40.71413311,-73.95234386,1208,485,203,1656,240,1896,1,08/01/2018
326,3088.0,Union Ave & Jackson St,40.7160751,-73.95202900000001,600,182,69,735,116,851,1,08/01/2018
327,3090.0,N 8 St & Driggs Ave,40.71774592,-73.95600096,2365,1092,228,3413,272,3685,1,08/01/2018
328,3091.0,Frost St & Meeker St,40.71764,-73.94882,387,144,45,514,62,576,1,08/01/2018
329,3092.0,Berry St & N 8 St,40.7190095,-73.95852515,1783,943,242,2623,345,2968,1,08/01/2018
330,3093.0,N 6 St & Bedford Ave,40.71745169,-73.95850939,2680,1212,361,3733,520,4253,1,08/01/2018
331,3094.0,Graham Ave & Withers St,40.7169811,-73.94485918,497,247,74,751,67,818,1,08/01/2018
332,3095.0,Graham Ave & Herbert St,40.71929301,-73.94500379,567,256,40,811,52,863,1,08/01/2018
333,3096.0,Union Ave & N 12 St,40.71924,-73.95241999999999,1294,593,173,1808,252,2060,1,08/01/2018
334,3100.0,Nassau Ave & Newell St,40.724812564400175,-73.94752621650694,867,589,91,1419,128,1547,1,08/01/2018
335,3101.0,N 12 St & Bedford Ave,40.72079821,-73.95484712,1249,563,259,1739,332,2071,1,08/01/2018
336,3102.0,Driggs Ave & Lorimer St,40.72179134,-73.95041540000001,948,481,107,1401,135,1536,1,08/01/2018
337,3105.0,N 15 St & Wythe Ave,40.724055,-73.955736,632,289,108,891,138,1029,1,08/01/2018
338,3106.0,Driggs Ave & N Henry St,40.72325,-73.94308000000001,945,553,104,1520,82,1602,1,08/01/2018
339,3107.0,Bedford Ave & Nassau Ave,40.72311651,-73.95212324,1897,818,270,2596,389,2985,1,08/01/2018
340,3108.0,Nassau Ave & Russell St,40.725570000000005,-73.94434,1191,622,126,1792,147,1939,1,08/01/2018
341,3109.0,Banker St & Meserole Ave,40.72606,-73.95621,1060,514,110,1515,169,1684,1,08/01/2018
342,3110.0,Meserole Ave & Manhattan Ave,40.72708584,-73.95299117,1417,727,134,2093,185,2278,1,08/01/2018
343,3112.0,Milton St & Franklin St,40.72906,-73.95779,2087,1110,280,3089,388,3477,1,08/01/2018
344,3113.0,Greenpoint Ave & Manhattan Ave,40.730259999999994,-73.95394,1385,596,157,1944,194,2138,1,08/01/2018
345,3115.0,India St & Manhattan Ave,40.73232194,-73.9550858,1086,533,104,1553,170,1723,1,08/01/2018
346,3116.0,Huron St & Franklin St,40.732659999999996,-73.95826,1151,651,167,1715,254,1969,1,08/01/2018
347,3117.0,Franklin St & Dupont St,40.735640000000004,-73.95866,1044,489,91,1474,150,1624,1,08/01/2018
348,3118.0,McGuinness Blvd & Eagle St,40.73555,-73.95284000000001,1096,484,130,1516,194,1710,1,08/01/2018
349,3119.0,Vernon Blvd & 50 Ave,40.74232744,-73.95411749,1997,577,147,2524,197,2721,1,08/01/2018
350,3120.0,Center Blvd & Borden Ave,40.741609999999994,-73.96044,427,199,166,553,239,792,1,08/01/2018
351,3121.0,Jackson Ave & 46 Rd,40.74524768,-73.94733276,412,165,53,532,98,630,1,08/01/2018
352,3122.0,48 Ave & 5 St,40.74436328706688,-73.95587325096129,385,122,64,462,109,571,1,08/01/2018
353,3123.0,31 St & Thomson Ave,40.74469738,-73.93540375,259,124,39,374,48,422,1,08/01/2018
354,3124.0,46 Ave & 5 St,40.74731,-73.95451,1408,471,152,1789,242,2031,1,08/01/2018
355,3125.0,45 Rd & 11 St,40.74708586,-73.94977234,872,277,80,1130,99,1229,1,08/01/2018
356,3126.0,44 Dr & Jackson Ave,40.74718234,-73.9432635,1085,446,145,1500,176,1676,1,08/01/2018
357,3127.0,9 St & 44 Rd,40.74966,-73.9521,240,154,84,355,123,478,1,08/01/2018
358,3128.0,21 St & 43 Ave,40.75052534,-73.94594845,274,45,41,310,50,360,1,08/01/2018
359,3129.0,Queens Plaza North & Crescent St,40.75110165,-73.94073717,1907,732,450,2541,548,3089,1,08/01/2018
360,3130.0,21 St & Queens Plaza North,40.75325964,-73.94335788,461,187,79,641,86,727,1,08/01/2018
361,3131.0,E 68 St & 3 Ave,40.76712840349542,-73.96224617958069,977,243,93,1216,97,1313,1,08/01/2018
362,3132.0,E 59 St & Madison Ave,40.76350532,-73.97109243,1694,524,277,2145,350,2495,1,08/01/2018
363,3134.0,3 Ave & E 62 St,40.76312584,-73.96526895,1428,346,238,1725,287,2012,1,08/01/2018
364,3135.0,E 75 St & 3 Ave,40.77112927,-73.95772297,974,369,97,1329,111,1440,1,08/01/2018
365,3136.0,5 Ave & E 63 St,40.766368,-73.971518,1093,502,1211,1148,1658,2806,1,08/01/2018
366,3137.0,5 Ave & E 73 St,40.77282817,-73.96685276,2582,1372,1620,2950,2624,5574,1,08/01/2018
367,3139.0,E 72 St & Park Ave,40.77118287540658,-73.96409422159195,969,445,656,1293,777,2070,1,08/01/2018
368,3140.0,1 Ave & E 78 St,40.77140426,-73.9535166,2804,1131,237,3906,266,4172,1,08/01/2018
369,3141.0,1 Ave & E 68 St,40.76500525,-73.95818491,4422,1513,329,5905,359,6264,1,08/01/2018
370,3142.0,1 Ave & E 62 St,40.761227399999996,-73.96094022,2970,1149,347,4021,445,4466,1,08/01/2018
371,3143.0,5 Ave & E 78 St,40.77632142182271,-73.96427392959596,1611,822,1812,1660,2585,4245,1,08/01/2018
372,3144.0,E 81 St & Park Ave,40.77677702,-73.95900970000001,364,126,67,448,109,557,1,08/01/2018
373,3145.0,E 84 St & Park Ave,40.77862688,-73.95772073,844,271,170,1062,223,1285,1,08/01/2018
374,3146.0,E 81 St & 3 Ave,40.77573034,-73.9567526,1123,360,177,1447,213,1660,1,08/01/2018
375,3147.0,E 85 St & 3 Ave,40.77801203,-73.95407149,2694,879,210,3492,291,3783,1,08/01/2018
376,3148.0,E 84 St & 1 Ave,40.77565541,-73.95068615,1381,598,155,1969,165,2134,1,08/01/2018
377,3150.0,E 85 St & York Ave,40.77536905,-73.94803392,1190,382,64,1544,92,1636,1,08/01/2018
378,3151.0,E 81 St & York Ave,40.7728384,-73.94989233,1259,403,95,1654,103,1757,1,08/01/2018
379,3152.0,3 Ave & E 71 St,40.76873687,-73.96119945,565,161,49,711,64,775,1,08/01/2018
380,3153.0,E 71 St & 2 Ave,40.76817546742245,-73.95910263061523,762,315,75,1036,116,1152,1,08/01/2018
381,3155.0,Lexington Ave & E 63 St,40.76440023,-73.96648977,1517,502,177,1944,252,2196,1,08/01/2018
382,3156.0,E 72 St & York Ave,40.76663814,-73.95348296,2471,762,188,3218,203,3421,1,08/01/2018
383,3157.0,East End Ave & E 86 St,40.77518615,-73.94446054,688,257,107,885,167,1052,1,08/01/2018
384,3158.0,W 63 St & Broadway,40.77163851,-73.98261428,3234,1116,583,4170,763,4933,1,08/01/2018
385,3159.0,W 67 St & Broadway,40.77492513,-73.98266566,3145,1053,260,4096,362,4458,1,08/01/2018
386,3160.0,Central Park West & W 76 St,40.77896784,-73.97374737,1785,882,1793,2055,2405,4460,1,08/01/2018
387,3161.0,W 76 St & Columbus Ave,40.7801839724239,-73.97728532552719,2286,888,286,3063,397,3460,1,08/01/2018
388,3162.0,W 78 St & Broadway,40.78339981,-73.98093133,1450,553,134,1946,191,2137,1,08/01/2018
389,3163.0,Central Park West & W 68 St,40.7734066,-73.97782542,3135,1409,1569,4019,2094,6113,1,08/01/2018
390,3164.0,Columbus Ave & W 72 St,40.7770575,-73.97898475,5101,2102,673,7113,763,7876,1,08/01/2018
391,3165.0,Central Park West & W 72 St,40.77579376683666,-73.97620573639871,3192,1372,2376,3901,3039,6940,1,08/01/2018
392,3166.0,Riverside Dr & W 72 St,40.780577990103346,-73.98562431335448,1786,935,504,2493,732,3225,1,08/01/2018
393,3167.0,Amsterdam Ave & W 73 St,40.779668090073116,-73.98093044757842,3939,1552,336,5371,456,5827,1,08/01/2018
394,3168.0,Central Park West & W 85 St,40.78472675,-73.96961715,2237,1039,1334,2809,1801,4610,1,08/01/2018
395,3169.0,Riverside Dr & W 82 St,40.78720869,-73.98128127,1281,529,246,1680,376,2056,1,08/01/2018
396,3170.0,W 84 St & Columbus Ave,40.78499979,-73.97283406,1808,798,211,2561,256,2817,1,08/01/2018
397,3171.0,Amsterdam Ave & W 82 St,40.78524672,-73.97667321,1791,913,246,2630,320,2950,1,08/01/2018
398,3172.0,W 74 St & Columbus Ave,40.7785669,-73.97754961,422,166,56,575,69,644,1,08/01/2018
399,3173.0,Riverside Blvd & W 67 St,40.777507027547976,-73.98888587951659,2087,762,489,2649,689,3338,1,08/01/2018
400,3175.0,W 70 St & Amsterdam Ave,40.77748046,-73.98288594,2226,752,218,2901,295,3196,1,08/01/2018
401,3177.0,W 84 St & Broadway,40.7867947,-73.977112,1916,674,243,2528,305,2833,1,08/01/2018
402,3178.0,Riverside Dr & W 78 St,40.78414472,-73.98362492,1101,507,383,1432,559,1991,1,08/01/2018
403,3179.0,Park Ave & Marcus Garvey Blvd,40.698617,-73.941342,257,146,56,368,91,459,1,08/01/2018
404,3180.0,Brooklyn Bridge Park - Pier 2,40.69878,-73.99712,724,357,926,874,1133,2007,1,08/01/2018
405,3182.0,Yankee Ferry Terminal,40.686931,-74.016966,381,341,607,528,801,1329,1,08/01/2018
406,3221.0,47 Ave & 31 St,40.743,-73.93561,304,99,35,387,51,438,1,08/01/2018
407,3223.0,E 55 St & 3 Ave,40.758996559605116,-73.96865397691727,2898,597,134,3434,195,3629,1,08/01/2018
408,3226.0,W 82 St & Central Park West,40.78275,-73.97137,1997,1001,711,2733,976,3709,1,08/01/2018
409,3231.0,E 67 St & Park Ave,40.76780080148132,-73.96592080593109,570,191,167,717,211,928,1,08/01/2018
410,3232.0,Bond St & Fulton St,40.68962188790333,-73.98304268717766,1527,693,177,2178,219,2397,1,08/01/2018
411,3233.0,E 48 St & 5 Ave,40.75724567911726,-73.97805914282799,4246,891,537,4931,743,5674,1,08/01/2018
412,3235.0,E 41 St & Madison Ave,40.752165280621966,-73.97992193698882,3634,713,313,4301,359,4660,1,08/01/2018
413,3236.0,W 42 St & Dyer Ave,40.75898481399634,-73.99379968643187,3609,691,288,4151,437,4588,1,08/01/2018
414,3239.0,Bressler,40.646538367096475,-74.0165877342224,20,0,0,20,0,20,1,08/01/2018
415,3240.0,NYCBS Depot BAL - DYR,40.759030082196055,-73.9938586950302,18,0,0,18,0,18,1,08/01/2018
416,3241.0,Monroe St & Tompkins Ave,40.686203000000006,-73.944694,446,300,43,724,65,789,1,08/01/2018
417,3242.0,Schermerhorn St & Court St,40.69102925677968,-73.99183362722397,1260,549,157,1776,190,1966,1,08/01/2018
418,3243.0,E 58 St & 1 Ave,40.75892386377695,-73.96226227283478,1839,590,217,2332,314,2646,1,08/01/2018
419,3244.0,University Pl & E 8 St,40.73143724085228,-73.99490341544151,2551,898,323,3351,421,3772,1,08/01/2018
420,3245.0,NYCBS DEPOT - DELANCEY,40.71644423134479,-73.9823305606842,2,0,0,2,0,2,1,08/01/2018
421,3249.0,Verona Pl & Fulton St,40.680356084043396,-73.94767910242079,543,281,42,813,53,866,1,08/01/2018
422,3254.0,Soissons Landing,40.69231660719192,-74.01486575603484,556,434,971,705,1256,1961,1,08/01/2018
423,3255.0,8 Ave & W 31 St,40.7505853470215,-73.9946848154068,7851,1325,627,8975,828,9803,1,08/01/2018
424,3256.0,Pier 40 - Hudson River Park,40.7277140777778,-74.01129573583603,3723,1651,2059,4645,2788,7433,1,08/01/2018
425,3258.0,W 27 St & 10 Ave,40.750181563256824,-74.00218427181244,3695,1479,321,5050,445,5495,1,08/01/2018
426,3259.0,9 Ave & W 28 St,40.74937024193277,-73.99923384189607,2153,768,364,2808,477,3285,1,08/01/2018
427,3260.0,Mercer St & Bleecker St,40.72706363348306,-73.99662137031554,4656,1692,433,6178,603,6781,1,08/01/2018
428,3263.0,Cooper Square & Astor Pl,40.729514962249496,-73.99075269699097,5488,1805,468,7193,568,7761,1,08/01/2018
429,3282.0,5 Ave & E 88 St,40.78307,-73.95939,2019,1062,2767,2081,3767,5848,1,08/01/2018
430,3283.0,W 89 St & Columbus Ave,40.7882213,-73.97041561,1648,880,215,2500,243,2743,1,08/01/2018
431,3284.0,E 88 St & Park Ave,40.781410700190015,-73.95595908164978,833,240,109,1046,136,1182,1,08/01/2018
432,3285.0,W 87 St & Amsterdam Ave,40.78839,-73.9747,1582,635,178,2125,270,2395,1,08/01/2018
433,3288.0,E 88 St & 1 Ave,40.778301,-73.9488134,1371,639,133,1968,175,2143,1,08/01/2018
434,3289.0,W 90 St & Amsterdam Ave,40.79017948095081,-73.97288918495178,953,412,70,1329,106,1435,1,08/01/2018
435,3290.0,E 89 St & York Ave,40.7779453,-73.94604100000001,148,46,7,187,14,201,1,08/01/2018
436,3292.0,5 Ave & E 93 St,40.785785100000005,-73.957481,710,441,833,904,1080,1984,1,08/01/2018
437,3293.0,W 92 St & Broadway,40.7921,-73.9739,1269,573,122,1803,161,1964,1,08/01/2018
438,3294.0,E 91 St & Park Ave,40.7835016,-73.955327,708,334,69,969,142,1111,1,08/01/2018
439,3295.0,Central Park W & W 96 St,40.791270000000004,-73.964839,2055,1074,1058,2815,1372,4187,1,08/01/2018
440,3296.0,E 93 St & 2 Ave,40.78245417527987,-73.94891962409021,884,321,84,1187,102,1289,1,08/01/2018
441,3297.0,6 St & 7 Ave,40.668662700000006,-73.97988067,631,247,44,869,53,922,1,08/01/2018
442,3298.0,Warren St & Court St,40.686371,-73.99383324,780,400,92,1159,113,1272,1,08/01/2018
443,3299.0,E 98 St & Park Ave,40.788129999999995,-73.95206,351,121,25,465,32,497,1,08/01/2018
444,3300.0,Prospect Park West & 8 St,40.66514681533792,-73.97637605667114,757,440,152,1146,203,1349,1,08/01/2018
445,3301.0,Columbus Ave & W 95 St,40.7919557,-73.968087,2236,1145,228,3321,288,3609,1,08/01/2018
446,3302.0,Columbus Ave & W 103 St,40.7969347,-73.9643412291,373,161,50,509,75,584,1,08/01/2018
447,3303.0,Butler St & Court St,40.6849894,-73.99440329,564,312,60,852,84,936,1,08/01/2018
448,3304.0,6 Ave & 9 St,40.668127,-73.98377641,748,399,76,1154,69,1223,1,08/01/2018
449,3305.0,E 91 St & 2 Ave,40.781122299341654,-73.94965589046478,1896,757,160,2594,219,2813,1,08/01/2018
450,3306.0,10 St & 7 Ave,40.666207799999995,-73.98199886,618,336,81,968,67,1035,1,08/01/2018
451,3307.0,West End Ave & W 94 St,40.7941654,-73.974124,1113,571,188,1617,255,1872,1,08/01/2018
452,3308.0,Kane St & Clinton St,40.686175799999994,-73.99645295,792,353,60,1127,78,1205,1,08/01/2018
453,3309.0,E 97 St & 3 Ave,40.7859201,-73.94860294,386,151,44,540,41,581,1,08/01/2018
454,3310.0,14 St & 7 Ave,40.663779,-73.98396846,726,237,54,944,73,1017,1,08/01/2018
455,3311.0,Columbia St & Kane St,40.68763155,-74.0016256,639,315,126,930,150,1080,1,08/01/2018
456,3312.0,1 Ave & E 94 St,40.78172120000001,-73.94594000000001,912,534,125,1423,148,1571,1,08/01/2018
457,3313.0,6 Ave & 12 St,40.666318100000005,-73.9854617,406,230,48,644,40,684,1,08/01/2018
458,3314.0,W 95 St & Broadway,40.7937704,-73.971888,2011,723,275,2655,354,3009,1,08/01/2018
459,3315.0,Henry St & Degraw St,40.684751399999996,-73.99917254,1041,561,129,1633,98,1731,1,08/01/2018
460,3317.0,10 St & 5 Ave,40.6686273,-73.98700053,498,201,53,680,72,752,1,08/01/2018
461,3318.0,2 Ave & E 96 St,40.7839636,-73.94716729999999,1883,637,107,2491,136,2627,1,08/01/2018
462,3319.0,14 St & 5 Ave,40.666287,-73.98895053,712,439,111,1156,106,1262,1,08/01/2018
463,3320.0,Central Park West & W 100 St,40.794066608185524,-73.96286845207214,1065,583,903,1418,1133,2551,1,08/01/2018
464,3321.0,Clinton St & Union St,40.683116399999996,-73.99785267,713,436,84,1140,93,1233,1,08/01/2018
465,3322.0,12 St & 4 Ave,40.668603000000004,-73.99043940000001,379,142,35,525,31,556,1,08/01/2018
466,3323.0,W 106 St & Central Park West,40.798185600000004,-73.96059090060001,1133,518,467,1517,601,2118,1,08/01/2018
467,3324.0,3 Ave & 14 St,40.6685455,-73.99333264,480,220,26,686,40,726,1,08/01/2018
468,3326.0,Clinton St & Centre St,40.67434,-74.00194698,218,119,42,335,44,379,1,08/01/2018
469,3327.0,3 Ave & E 100 St,40.787721399999995,-73.94728331,294,115,36,403,42,445,1,08/01/2018
470,3328.0,W 100 St & Manhattan Ave,40.795,-73.9645,1149,591,139,1693,186,1879,1,08/01/2018
471,3329.0,Degraw St & Smith St,40.6829151,-73.99318208,791,327,157,1126,149,1275,1,08/01/2018
472,3330.0,Henry St & Bay St,40.672505799999996,-74.00494695,311,275,52,571,67,638,1,08/01/2018
473,3331.0,Riverside Dr & W 104 St,40.8013434,-73.97114574390001,1015,524,212,1411,340,1751,1,08/01/2018
474,3332.0,Degraw St & Hoyt St,40.68199044270703,-73.99079024791719,405,281,37,671,52,723,1,08/01/2018
475,3333.0,Columbia St & Lorraine St,40.6747055,-74.00755720000001,108,34,7,138,11,149,1,08/01/2018
476,3335.0,Union St & 4 Ave,40.6772744,-73.98282002,271,138,41,405,45,450,1,08/01/2018
477,3336.0,E 97 St & Madison Ave,40.787801,-73.953559,1153,459,191,1500,303,1803,1,08/01/2018
478,3337.0,Dwight St & Van Dyke St,40.67363551341504,-74.01195555925368,193,104,33,278,52,330,1,08/01/2018
479,3338.0,2 Ave & E 99 St,40.786258600000004,-73.94552579,517,200,55,715,57,772,1,08/01/2018
480,3339.0,Berkeley Pl & 6 Ave,40.6765304,-73.97846879,660,286,77,949,74,1023,1,08/01/2018
481,3340.0,Wolcott St & Dwight St,40.6753274,-74.0100698,162,123,13,284,14,298,1,08/01/2018
482,3341.0,Central Park West & W 102 St,40.795346,-73.96186,843,422,291,1142,414,1556,1,08/01/2018
483,3342.0,Pioneer St & Richards St,40.677774799999995,-74.0094613,256,120,24,371,29,400,1,08/01/2018
484,3343.0,W 107 St & Columbus Ave,40.7997568,-73.9621128676,606,244,86,816,120,936,1,08/01/2018
485,3344.0,Pioneer St & Van Brunt St,40.679043,-74.011169,370,258,108,606,130,736,1,08/01/2018
486,3345.0,Madison Ave & E 99 St,40.78948541553215,-73.9524292945862,811,300,92,1065,138,1203,1,08/01/2018
487,3346.0,Berkeley Pl & 7 Ave,40.675146838709786,-73.9752320945263,1069,770,135,1841,133,1974,1,08/01/2018
488,3347.0,Van Brunt St & Wolcott St,40.6773429,-74.01275056,320,168,79,499,68,567,1,08/01/2018
489,3348.0,Coffey St & Conover St,40.677236,-74.015665,330,158,97,465,120,585,1,08/01/2018
490,3349.0,Grand Army Plaza & Plaza St West,40.6729679,-73.97087984,1364,789,349,2027,475,2502,1,08/01/2018
491,3350.0,W 100 St & Broadway,40.797372100000004,-73.97041192,1706,609,159,2239,235,2474,1,08/01/2018
492,3351.0,E 102 St & 1 Ave,40.7869946,-73.94164802,1224,482,163,1722,147,1869,1,08/01/2018
493,3352.0,Sigourney St & Columbia St,40.67267243410948,-74.00879524648191,196,109,25,289,41,330,1,08/01/2018
494,3354.0,3 St & Prospect Park West,40.668132,-73.97363831,1054,551,364,1561,408,1969,1,08/01/2018
495,3355.0,E 66 St & Madison Ave,40.768008893059466,-73.96845281124116,415,152,190,514,243,757,1,08/01/2018
496,3356.0,Amsterdam Ave & W 66 St,40.7746671,-73.98470567,1165,450,115,1550,180,1730,1,08/01/2018
497,3357.0,W 106 St & Amsterdam Ave,40.80083629999999,-73.9664492472,1021,544,124,1505,184,1689,1,08/01/2018
498,3358.0,Garfield Pl & 8 Ave,40.671197799999995,-73.97484126,487,353,73,843,70,913,1,08/01/2018
499,3359.0,E 68 St & Madison Ave,40.7691572,-73.96703464,528,205,217,677,273,950,1,08/01/2018
500,3360.0,Amsterdam Ave & W 79 St,40.7829391,-73.9786517,2135,875,263,2900,373,3273,1,08/01/2018
501,3361.0,Carroll St & 6 Ave,40.6740886,-73.9787282,724,423,87,1138,96,1234,1,08/01/2018
502,3362.0,Madison Ave & E 82 St,40.7781314,-73.96069399,980,408,579,1173,794,1967,1,08/01/2018
503,3363.0,E 102 St & Park Ave,40.7904828,-73.95033068,534,204,68,734,72,806,1,08/01/2018
504,3364.0,Carroll St & 5 Ave,40.6751622,-73.9814832,1044,437,113,1488,106,1594,1,08/01/2018
505,3365.0,3 St & 7 Ave,40.67038370000001,-73.97839676,906,436,93,1330,105,1435,1,08/01/2018
506,3366.0,West End Ave & W 107 St,40.8021174,-73.9681805305,921,488,128,1380,157,1537,1,08/01/2018
507,3367.0,5 Ave & E 103 St,40.792255299999994,-73.95249933,1319,705,573,1780,817,2597,1,08/01/2018
508,3368.0,5 Ave & 3 St,40.672815500000006,-73.98352355,1036,459,155,1503,147,1650,1,08/01/2018
509,3369.0,E 82 St & East End Ave,40.7724607,-73.9468208,801,324,51,1111,65,1176,1,08/01/2018
510,3370.0,E 78 St & 2 Ave,40.7727966,-73.95577801,886,355,114,1214,141,1355,1,08/01/2018
511,3371.0,4 Ave & 2 St,40.674613422475815,-73.98501142859459,476,191,40,670,37,707,1,08/01/2018
512,3372.0,E 74 St & 1 Ave,40.7689738,-73.95482273,1868,661,106,2462,173,2635,1,08/01/2018
513,3373.0,3 St & 3 Ave,40.675070500000004,-73.98775226,1006,432,91,1423,106,1529,1,08/01/2018
514,3374.0,Central Park North & Adam Clayton Powell Blvd,40.799484,-73.955613,1568,831,1586,1906,2079,3985,1,08/01/2018
515,3375.0,3 Ave & E 72 St,40.7699426,-73.96060712,715,254,109,948,130,1078,1,08/01/2018
516,3376.0,E 65 St & 2 Ave,40.76471851944339,-73.96222069859505,1112,335,75,1415,107,1522,1,08/01/2018
517,3377.0,Carroll St & Bond St,40.6786115,-73.99037292,561,220,96,805,72,877,1,08/01/2018
518,3378.0,E 76 St & Park Ave,40.773763,-73.96222088,945,302,167,1203,211,1414,1,08/01/2018
519,3379.0,E 103 St & Lexington Ave,40.790305100000005,-73.94755757,646,242,66,888,66,954,1,08/01/2018
520,3381.0,3 St & Hoyt St,40.6777287,-73.99364123,559,186,40,740,45,785,1,08/01/2018
521,3382.0,Carroll St & Smith St,40.680611,-73.99475825,1172,488,202,1714,148,1862,1,08/01/2018
522,3383.0,Cathedral Pkwy & Broadway,40.804213,-73.96699104,1327,534,152,1805,208,2013,1,08/01/2018
523,3384.0,Smith St & 3 St,40.678724200000005,-73.99599099,762,337,88,1088,99,1187,1,08/01/2018
524,3386.0,1 Pl & Clinton St,40.6809591,-73.99905709,624,320,47,930,61,991,1,08/01/2018
525,3387.0,E 106 St & Madison Ave,40.79343370000001,-73.94945003,337,127,97,429,132,561,1,08/01/2018
526,3388.0,President St & Henry St,40.6828003,-73.99990419,699,293,57,976,73,1049,1,08/01/2018
527,3389.0,Carroll St & Columbia St,40.6830456,-74.00348559,611,408,122,1008,133,1141,1,08/01/2018
528,3390.0,E 109 St & 3 Ave,40.79329668,-73.9432083,482,156,57,625,70,695,1,08/01/2018
529,3391.0,E 106 St & 1 Ave,40.7892529,-73.93956237,271,176,37,456,28,484,1,08/01/2018
530,3392.0,Commerce St & Van Brunt St,40.681211700000006,-74.00860912,231,97,59,328,59,387,1,08/01/2018
531,3393.0,Richards St & Delavan St,40.67943270000001,-74.00785041,227,160,49,381,55,436,1,08/01/2018
532,3394.0,Columbia St & W 9 St,40.6769993,-74.00647134,114,24,8,139,7,146,1,08/01/2018
533,3396.0,Clinton St & 4 Place,40.6783563,-74.00014502,538,381,82,911,90,1001,1,08/01/2018
534,3397.0,Court St & Nelson St,40.6763947,-73.99869893,764,433,101,1157,141,1298,1,08/01/2018
535,3398.0,Smith St & 9 St,40.67469570000001,-73.99785768,285,130,24,402,37,439,1,08/01/2018
536,3399.0,7 St & 3 Ave,40.67260298150126,-73.98983001708984,473,236,25,685,49,734,1,08/01/2018
537,3400.0,E 110 St & Madison Ave,40.796153499999996,-73.94782145,956,410,177,1326,217,1543,1,08/01/2018
538,3401.0,2 Ave & 9 St,40.6724811,-73.99331394,360,127,53,487,53,540,1,08/01/2018
539,3402.0,Court St & State St,40.6902375,-73.99203074,1526,919,183,2470,158,2628,1,08/01/2018
540,3403.0,4 Ave & 9 St,40.6705135,-73.98876585,730,291,78,1021,78,1099,1,08/01/2018
541,3404.0,7 St & 5 Ave,40.670492200000005,-73.98541675,581,250,126,878,79,957,1,08/01/2018
542,3405.0,5 St & 6 Ave,40.670483600000004,-73.98208968,447,186,36,621,48,669,1,08/01/2018
543,3407.0,Union St & Nevins St,40.67909799721684,-73.98765474557877,753,463,159,1146,229,1375,1,08/01/2018
544,3408.0,Congress St & Clinton St,40.6881529,-73.99520919,971,517,86,1465,109,1574,1,08/01/2018
545,3409.0,Bergen St & Smith St,40.686744299999994,-73.99063168,2438,1129,231,3505,293,3798,1,08/01/2018
546,3410.0,Dean St & Hoyt St,40.686444200000004,-73.98759104,528,334,123,865,120,985,1,08/01/2018
547,3411.0,Bond St & Bergen St,40.6849668,-73.98620772,902,491,131,1397,127,1524,1,08/01/2018
548,3412.0,Pacific St & Nevins St,40.6853761,-73.98302136,639,304,87,966,64,1030,1,08/01/2018
549,3413.0,Wyckoff St & 3 Ave,40.6827549,-73.98258555,645,375,46,1005,61,1066,1,08/01/2018
550,3414.0,Bergen St & Flatbush Ave,40.680944723477296,-73.97567331790923,1007,535,159,1489,212,1701,1,08/01/2018
551,3415.0,Prospect Pl & 6 Ave,40.6793307,-73.97519523,778,408,75,1139,122,1261,1,08/01/2018
552,3417.0,Baltic St & 5 Ave,40.6795766,-73.97854971,997,518,118,1492,141,1633,1,08/01/2018
553,3418.0,Plaza St West & Flatbush Ave,40.675020700000005,-73.97111473,1264,700,175,1929,210,2139,1,08/01/2018
554,3419.0,Douglass St & 4 Ave,40.67927879999999,-73.98154004,978,429,112,1357,162,1519,1,08/01/2018
555,3420.0,Douglass St & 3 Ave,40.6802133,-73.98432695,1117,365,62,1436,108,1544,1,08/01/2018
556,3421.0,Hoyt St & Warren St,40.6843549,-73.98901629,305,152,26,437,46,483,1,08/01/2018
557,3422.0,Columbia St & Degraw St,40.6859296,-74.00242364,645,385,105,1005,130,1135,1,08/01/2018
558,3423.0,West Drive & Prospect Park West,40.6610633719006,-73.97945255041121,1486,959,600,2286,759,3045,1,08/01/2018
559,3424.0,E 106 St & Lexington Ave,40.791976,-73.945993,394,208,59,601,60,661,1,08/01/2018
560,3425.0,2 Ave & E 104 St,40.789210499999996,-73.94370784,830,214,45,1021,68,1089,1,08/01/2018
561,3427.0,Lafayette St & Jersey St,40.72430527250332,-73.99600982666016,4347,1749,724,5865,955,6820,1,08/01/2018
562,3429.0,Hanson Pl & Ashland Pl,40.68506807308177,-73.97790759801863,2996,993,224,3974,239,4213,1,08/01/2018
563,3430.0,Richardson St & N Henry St,40.71907891179564,-73.94223690032959,813,362,56,1171,60,1231,1,08/01/2018
564,3431.0,E 35 St & 3 Ave,40.746524,-73.977885,2451,746,206,3118,285,3403,1,08/01/2018
565,3432.0,NYCBS Depot - GOW,40.66906013501107,-73.99463653564453,90,6,0,96,0,96,1,08/01/2018
566,3434.0,W 88 St & West End Ave,40.790254173304184,-73.97718340158461,919,381,122,1257,165,1422,1,08/01/2018
567,3435.0,Grand St & Elizabeth St,40.718821999999996,-73.99596,4566,2115,785,6517,949,7466,1,08/01/2018
568,3437.0,Riverside Dr & W 91 St,40.793134809866636,-73.97700369358063,741,459,232,1089,343,1432,1,08/01/2018
569,3438.0,E 76 St & 3 Ave,40.772248537721744,-73.95842134952545,789,281,130,1064,136,1200,1,08/01/2018
570,3440.0,Fulton St & Adams St,40.692418292578466,-73.98949474096298,1889,796,420,2630,475,3105,1,08/01/2018
571,3441.0,10 Hudson Yards,40.752957,-74.00264,345,156,28,515,14,529,1,08/01/2018
572,3443.0,W 52 St & 6 Ave,40.76132983124814,-73.97982001304626,4801,824,413,5522,516,6038,1,08/01/2018
573,3449.0,Eckford St & Engert Ave,40.72146256229816,-73.94800901412964,517,147,25,657,32,689,1,08/01/2018
574,3452.0,Bayard St & Leonard St,40.71915571696044,-73.94885390996933,761,350,16,1069,58,1127,1,08/01/2018
575,3453.0,Devoe St & Lorimer St,40.71335226222875,-73.9491033554077,886,415,74,1258,117,1375,1,08/01/2018
576,3454.0,Leonard St & Maujer St,40.71036854235229,-73.94705951213838,633,379,83,926,169,1095,1,08/01/2018
577,3456.0,Jackson St & Leonard St,40.716380319735606,-73.94821286201476,277,127,45,386,63,449,1,08/01/2018
578,3457.0,E 58 St & Madison Ave,40.763025942805186,-73.97209525108337,1725,491,310,2106,420,2526,1,08/01/2018
579,3458.0,W 55 St & 6 Ave,40.76309387270797,-73.97835016250609,3544,874,414,4170,662,4832,1,08/01/2018
580,3459.0,E 53 St & 3 Ave,40.75763227739443,-73.9693057537079,2509,605,221,3002,333,3335,1,08/01/2018
581,3461.0,Murray St & Greenwich St,40.71485150526252,-74.01122331619263,2698,1034,328,3626,434,4060,1,08/01/2018
582,3462.0,E 44 St & 2 Ave,40.75118387463277,-73.97138714790343,1702,597,132,2220,211,2431,1,08/01/2018
583,3463.0,E 16 St & Irving Pl,40.735367055605394,-73.98797392845155,2949,1000,143,3882,210,4092,1,08/01/2018
584,3466.0,W 45 St & 6 Ave (OLD),40.75668720603179,-73.98257732391356,2585,451,346,2898,484,3382,1,08/01/2018
585,3467.0,W Broadway & Spring Street,40.72494672359416,-74.00165855884552,3130,1151,587,4040,828,4868,1,08/01/2018
586,3469.0,India St & West St,40.73181401720966,-73.95995020866394,607,268,123,844,154,998,1,08/01/2018
587,3472.0,W 15 St & 10 Ave,40.742753828659026,-74.00747358798982,2665,991,776,3211,1221,4432,1,08/01/2018
588,3474.0,6 Ave & Spring St,40.7252556952547,-74.00412082672119,3154,1269,377,4313,487,4800,1,08/01/2018
589,3477.0,39 St & 2 Ave - Citi Bike HQ at Industry City,40.65539977447831,-74.0106278657913,210,86,17,282,31,313,1,08/01/2018
590,3478.0,2 Ave & 36 St - Citi Bike HQ at Industry City,40.65708866668485,-74.00870203971863,653,239,74,863,103,966,1,08/01/2018
591,3479.0,Picnic Point,40.68512559515415,-74.02535319328308,330,250,560,444,696,1140,1,08/01/2018
592,3486.0,Schermerhorn St & Bond St,40.68841742754083,-73.98451656103134,1779,641,133,2423,130,2553,1,08/01/2018
593,3489.0,Gold St & Frankfort St,40.710699946313866,-74.00354146957396,684,372,377,891,542,1433,1,08/01/2018
594,3490.0,E 116 St & 2 Ave,40.796879,-73.93726099999999,349,147,46,483,59,542,1,08/01/2018
595,3491.0,E 118 St & 1 Ave,40.797470000000004,-73.93504,427,141,90,581,77,658,1,08/01/2018
596,3492.0,E 118 St & Park Ave,40.8005385,-73.9419949,153,73,14,228,12,240,1,08/01/2018
597,3493.0,E 118 St & 3 Ave,40.799139000000004,-73.9389152,397,136,67,534,66,600,1,08/01/2018
598,3494.0,E 115 St & Lexington Ave,40.797911,-73.9423,417,179,93,625,64,689,1,08/01/2018
599,3495.0,E 114 St & 1 Ave,40.79456629999999,-73.9362541,368,86,57,455,56,511,1,08/01/2018
600,3496.0,1 Ave & E 110 St,40.7923272,-73.9383,941,294,130,1282,83,1365,1,08/01/2018
601,3497.0,Pleasant Ave & E 116 St,40.794987899999995,-73.9333349,969,430,94,1347,146,1493,1,08/01/2018
602,3498.0,Pleasant Ave & E 120 St,40.7974772,-73.9311847,234,111,79,354,70,424,1,08/01/2018
603,3499.0,2 Ave & E 122 St,40.8006721,-73.9349,329,108,31,405,63,468,1,08/01/2018
604,3500.0,E 115 St & Madison Ave,40.7989445,-73.944846,293,137,72,449,53,502,1,08/01/2018
605,3501.0,E 118 St & Madison Ave,40.801486600000004,-73.9442507,383,143,59,534,51,585,1,08/01/2018
606,3502.0,Lexington Ave & E 111 St,40.79541210000001,-73.9441232,561,303,71,849,86,935,1,08/01/2018
607,3503.0,Madison Ave & E 120 St,40.80295,-73.942954,259,96,49,338,66,404,1,08/01/2018
608,3504.0,E 123 St & Lexington Ave,40.802926299999996,-73.9379,399,171,61,554,77,631,1,08/01/2018
609,3505.0,Lexington Ave & E 127 St,40.805726,-73.936322,223,87,79,332,57,389,1,08/01/2018
610,3506.0,Lexington Ave & E 120 St,40.8013066,-73.93981670000001,250,109,37,340,56,396,1,08/01/2018
611,3507.0,Park Ave & E 124 St,40.8045555,-73.93968609999999,1757,588,138,2330,153,2483,1,08/01/2018
612,3508.0,St Nicholas Ave & Manhattan Ave,40.809725,-73.953149,988,334,121,1307,136,1443,1,08/01/2018
613,3509.0,Lenox Ave & W 115 St,40.8011939,-73.9500739,459,236,151,703,143,846,1,08/01/2018
614,3510.0,Adam Clayton Powell Blvd & W 123 St,40.8078316,-73.949373,506,258,88,761,91,852,1,08/01/2018
615,3511.0,Adam Clayton Powell Blvd & W 115 St,40.802535,-73.9532423,319,155,90,450,114,564,1,08/01/2018
616,3512.0,27 Ave & 4 St,40.7747175,-73.93378940000001,52,44,31,83,44,127,1,08/01/2018
617,3513.0,21 St & Hoyt Ave S,40.774645,-73.92370600000001,298,126,75,392,107,499,1,08/01/2018
618,3514.0,Astoria Park S & Shore Blvd,40.7767,-73.927631,345,221,93,528,131,659,1,08/01/2018
619,3515.0,24 Ave & 26 St,40.774591,-73.918544,307,127,46,439,41,480,1,08/01/2018
620,3516.0,31 St & Astoria Blvd,40.76991760000001,-73.91840570000001,739,305,82,1026,100,1126,1,08/01/2018
621,3517.0,31 St & Hoyt Ave N,40.771152799999996,-73.9170074,433,188,73,627,67,694,1,08/01/2018
622,3518.0,Lenox Ave & W 126 St,40.808442,-73.94520870000001,876,418,239,1268,265,1533,1,08/01/2018
623,3520.0,Adam Clayton Powell Blvd & W 118 St,40.804372,-73.951475,349,135,107,480,111,591,1,08/01/2018
624,3521.0,Lenox Ave & W 111 St,40.7987859,-73.9523,1521,608,995,1889,1235,3124,1,08/01/2018
625,3522.0,37 St & 24 Ave,40.7701477,-73.9120938,339,80,26,410,35,445,1,08/01/2018
626,3523.0,24 Ave & 29 St,40.7729,-73.91614200000001,284,154,43,405,76,481,1,08/01/2018
627,3524.0,19 St & 24 Ave,40.777455200000006,-73.9225403,521,244,55,698,122,820,1,08/01/2018
628,3525.0,23 Ave & 27 St,40.776165,-73.9153175,167,101,30,247,51,298,1,08/01/2018
629,3526.0,31 St & 23 Ave,40.7747878,-73.91255509999999,1126,411,154,1528,163,1691,1,08/01/2018
630,3527.0,5 Ave & E 126 St,40.806979999999996,-73.94174699999999,310,94,69,384,89,473,1,08/01/2018
631,3528.0,Steinway St & 23 Ave,40.771393700000004,-73.9077436,349,146,39,469,65,534,1,08/01/2018
632,3529.0,Lenox Ave & W 130 St,40.8107922,-73.9430681,924,397,208,1272,257,1529,1,08/01/2018
633,3530.0,Crescent St & Ditmars Blvd,40.7787185,-73.9145645,359,97,44,408,92,500,1,08/01/2018
634,3531.0,Frederick Douglass Blvd & W 129 St,40.8125511,-73.9492286,334,209,134,500,177,677,1,08/01/2018
635,3532.0,Ditmars Blvd & 19 St,40.78145,-73.9183302,525,230,126,735,146,881,1,08/01/2018
636,3533.0,St. Nicholas Ave & W 126 St,40.8114323,-73.95187759999999,673,316,152,926,215,1141,1,08/01/2018
637,3534.0,Frederick Douglass Blvd & W 117 St,40.805159,-73.95469200000001,1473,607,287,2080,287,2367,1,08/01/2018
638,3535.0,Mt Morris Park W & W 120 St,40.804038,-73.945925,555,262,79,778,118,896,1,08/01/2018
639,3536.0,W 116 St & Broadway,40.8082,-73.9641,807,434,156,1158,239,1397,1,08/01/2018
640,3537.0,Carlton Ave & Dean St,40.68097410000001,-73.97100970000001,702,321,56,982,97,1079,1,08/01/2018
641,3538.0,W 110 St & Amsterdam Ave,40.802692,-73.96295,793,463,183,1156,283,1439,1,08/01/2018
642,3539.0,W 116 St & Amsterdam Ave,40.8067581,-73.9607082,930,380,169,1283,196,1479,1,08/01/2018
643,3540.0,Morningside Ave & W 123 St,40.81,-73.9551508,363,174,118,526,129,655,1,08/01/2018
644,3541.0,Amsterdam Ave & W 125 St,40.813358,-73.956461,474,218,140,675,157,832,1,08/01/2018
645,3542.0,Amsterdam Ave & W 119 St,40.8086249,-73.9596214,687,291,101,964,115,1079,1,08/01/2018
646,3543.0,Morningside Dr & Amsterdam Ave,40.81028506306003,-73.95736455917357,138,81,19,199,39,238,1,08/01/2018
647,3544.0,Underhill Ave & Pacific St,40.6804836,-73.9646795,653,331,71,976,79,1055,1,08/01/2018
648,3545.0,Broadway & W 122 St,40.8120562,-73.9612547,385,130,61,489,87,576,1,08/01/2018
649,3546.0,Pacific St & Classon Ave,40.67919439999999,-73.95879029999999,261,76,23,330,30,360,1,08/01/2018
650,3547.0,Broadway & Moylan Pl,40.8143256,-73.9590255,940,394,206,1208,332,1540,1,08/01/2018
651,3549.0,Grand Ave & Bergen St,40.678045000000004,-73.962408,655,351,80,1004,82,1086,1,08/01/2018
652,3551.0,3 Ave & E 112 St,40.795508,-73.94160600000001,309,133,67,459,50,509,1,08/01/2018
653,3552.0,W 113 St & Broadway,40.805973,-73.964928,876,435,135,1242,204,1446,1,08/01/2018
654,3553.0,Frederick Douglass Blvd & W 112 St,40.801694,-73.957145,1278,635,279,1820,372,2192,1,08/01/2018
655,3554.0,Vernon Blvd & 41 Rd,40.7552433,-73.94856779999999,204,140,97,314,127,441,1,08/01/2018
656,3555.0,28 St & 41 Ave,40.751047,-73.93796999999999,763,291,78,1016,116,1132,1,08/01/2018
657,3556.0,24 St & 41 Ave,40.752708500000004,-73.9397405,495,91,36,572,50,622,1,08/01/2018
658,3557.0,40 Ave & 9 St,40.75742,-73.945133,76,73,43,144,48,192,1,08/01/2018
659,3558.0,Bergen St & Vanderbilt Ave,40.6794388,-73.96804379999999,863,589,126,1393,185,1578,1,08/01/2018
660,3559.0,21 St & 38 Ave,40.7576314,-73.9391224,102,44,43,140,49,189,1,08/01/2018
661,3560.0,28 St & 38 Ave,40.754876,-73.934326,362,140,56,486,72,558,1,08/01/2018
662,3561.0,37 Ave & 35 St,40.7531106,-73.9279917,306,92,40,382,56,438,1,08/01/2018
663,3562.0,Classon Ave & St Marks Ave,40.676519799999994,-73.9596082,719,413,77,1134,75,1209,1,08/01/2018
664,3563.0,28 St & 36 Ave,40.757186,-73.93271899999999,278,131,39,400,48,448,1,08/01/2018
665,3564.0,21 St & 36 Ave,40.760185299999996,-73.9362726,113,49,37,147,52,199,1,08/01/2018
666,3565.0,36 Ave & 10 St,40.7614376,-73.9411265,308,111,75,375,119,494,1,08/01/2018
667,3566.0,Crescent St & 35 Ave,40.7596276,-73.93214549999999,272,109,16,384,13,397,1,08/01/2018
668,3567.0,11 St & 35 Ave,40.76274420000001,-73.9391141,108,17,7,118,14,132,1,08/01/2018
669,3568.0,34 St & 35 Ave,40.756933200000006,-73.92622309999999,410,184,66,614,46,660,1,08/01/2018
670,3569.0,Franklin Ave & St Marks Ave,40.6758324,-73.95616770000001,484,376,45,812,93,905,1,08/01/2018
671,3570.0,35 Ave & 37 St,40.7557327,-73.92366109999999,479,255,84,733,85,818,1,08/01/2018
672,3571.0,Bedford Ave & Bergen St,40.676368,-73.95291800000001,581,376,110,924,143,1067,1,08/01/2018
673,3572.0,34 Ave & 38 St,40.756913,-73.921631,908,299,101,1187,121,1308,1,08/01/2018
674,3573.0,35 St & 34 Ave,40.7580583,-73.92427509999999,331,150,38,479,40,519,1,08/01/2018
675,3574.0,Prospect Pl & Underhill Ave,40.6769694,-73.96579,581,258,49,842,46,888,1,08/01/2018
676,3575.0,Crescent St & 34 Ave,40.76108,-73.930562,412,125,53,558,32,590,1,08/01/2018
677,3576.0,Park Pl & Vanderbilt Ave,40.6767,-73.969024,948,544,104,1472,124,1596,1,08/01/2018
678,3577.0,34 Ave & 21 St,40.762813799999996,-73.9342862,233,144,67,396,48,444,1,08/01/2018
679,3578.0,Park Pl & Franklin Ave,40.67418060000001,-73.95649470000001,445,261,44,665,85,750,1,08/01/2018
680,3579.0,Sterling Pl & Bedford Ave,40.672695000000004,-73.954131,518,246,75,741,98,839,1,08/01/2018
681,3580.0,St Johns Pl & Washington Ave,40.6737236,-73.9631611,702,293,80,975,100,1075,1,08/01/2018
682,3581.0,Underhill Ave & Lincoln Pl,40.674012299999994,-73.9671457,696,383,118,1077,120,1197,1,08/01/2018
683,3582.0,Lincoln Pl & Classon Ave,40.672168299999996,-73.9609,250,146,32,388,40,428,1,08/01/2018
684,3583.0,Eastern Pkwy & Washington Ave,40.6716493,-73.9631145,356,291,113,608,152,760,1,08/01/2018
685,3584.0,Eastern Pkwy & Franklin Ave,40.670776700000005,-73.9576801,936,478,125,1343,196,1539,1,08/01/2018
686,3585.0,Union St & Bedford Ave,40.6691783,-73.9554162,186,113,26,271,54,325,1,08/01/2018
687,3586.0,34 Ave & 13 St,40.763875299999995,-73.9364848,150,37,6,181,12,193,1,08/01/2018
688,3587.0,Carroll St & Washington Ave,40.6686744,-73.9618148,188,118,66,283,89,372,1,08/01/2018
689,3588.0,Vernon Blvd & 10 St,40.7671863,-73.9373554,395,155,87,507,130,637,1,08/01/2018
690,3589.0,Broadway & 12 St,40.7668,-73.93477740000002,306,115,25,401,45,446,1,08/01/2018
691,3590.0,Carroll St & Franklin Ave,40.6679411,-73.9588,175,76,2,229,24,253,1,08/01/2018
692,3591.0,21 St & 31 Dr,40.7659,-73.930819,517,175,62,664,90,754,1,08/01/2018
693,3592.0,Crescent St & Broadway,40.7633589,-73.92864709999999,786,301,54,1062,79,1141,1,08/01/2018
694,3593.0,31 St & Broadway,40.761584,-73.925921,844,288,106,1129,109,1238,1,08/01/2018
695,3595.0,35 St & Broadway,40.760339,-73.9222427,512,145,69,650,76,726,1,08/01/2018
696,3596.0,Sullivan Pl & Bedford Ave,40.6642406,-73.9574686,63,30,20,84,29,113,1,08/01/2018
697,3597.0,43 St & Broadway,40.7577284,-73.9166368,538,197,56,692,99,791,1,08/01/2018
698,3598.0,Newton Rd & 44 St,40.7595701,-73.91426779999999,382,107,27,471,45,516,1,08/01/2018
699,3599.0,Franklin Ave & Empire Blvd,40.663140000000006,-73.96056949999999,714,387,213,984,330,1314,1,08/01/2018
700,3601.0,Sterling St & Bedford Ave,40.6627059,-73.9569115,171,99,33,241,62,303,1,08/01/2018
701,3602.0,31 Ave & 34 St,40.763154,-73.920827,677,212,86,858,117,975,1,08/01/2018
702,3603.0,31 Ave & 30 St,40.7647,-73.9240312,505,192,58,669,86,755,1,08/01/2018
703,3604.0,Rogers Ave & Sterling St,40.6630619,-73.95387459999999,340,176,56,475,97,572,1,08/01/2018
704,3605.0,31 Ave & Crescent St,40.765834600000005,-73.9265474,572,178,39,747,42,789,1,08/01/2018
705,3606.0,49 Ave & 21 St,40.74252,-73.948852,275,94,9,349,29,378,1,08/01/2018
706,3607.0,31 Ave & 14 St,40.7682,-73.9322662,233,149,68,404,46,450,1,08/01/2018
707,3608.0,5 St & 51 Ave,40.7423737,-73.9566,319,82,42,382,61,443,1,08/01/2018
708,3609.0,Vernon Blvd & 31 Ave,40.7692475,-73.93545040000001,246,227,99,455,117,572,1,08/01/2018
709,3610.0,Vernon Blvd & 30 Rd,40.770845,-73.93417099999999,574,303,81,841,117,958,1,08/01/2018
710,3611.0,Vernon Blvd & 47 Rd,40.7449067,-73.9534573,608,246,113,800,167,967,1,08/01/2018
711,3612.0,30 Ave & 21 St,40.77037429999999,-73.9286078,205,63,38,253,53,306,1,08/01/2018
712,3613.0,Center Blvd & 48 Ave,40.745038,-73.957539,694,199,160,860,193,1053,1,08/01/2018
713,3614.0,Crescent St & 30 Ave,40.768692,-73.9249574,401,135,86,561,61,622,1,08/01/2018
714,3615.0,44 Dr & 21 St,40.748000000000005,-73.94609270000001,838,278,94,1091,119,1210,1,08/01/2018
715,3616.0,Steinway St & 28 Ave,40.7656251,-73.9136695,534,176,47,668,89,757,1,08/01/2018
716,3617.0,28 Ave & 35 St,40.7671,-73.9169858,400,133,34,515,52,567,1,08/01/2018
717,3618.0,27 St & Hunter St,40.7485,-73.941275,409,149,50,545,63,608,1,08/01/2018
718,3619.0,Newtown Ave & 23 St,40.7713615,-73.9246145,452,140,59,601,50,651,1,08/01/2018
719,3620.0,11 St & 43 Ave,40.7519071,-73.94791190000001,133,45,38,152,64,216,1,08/01/2018
720,3621.0,27 Ave & 9 St,40.7739825,-73.93091340000001,151,110,44,253,52,305,1,08/01/2018
721,3622.0,E 128 St & Madison Ave,40.807559999999995,-73.93918199999999,424,74,50,488,60,548,1,08/01/2018
722,3623.0,W 120 St & Claremont Ave,40.8109494,-73.9634,716,304,93,962,151,1113,1,08/01/2018
723,3625.0,28 St & 40 Ave,40.752575799999995,-73.9364281,189,75,26,262,28,290,1,08/01/2018
724,3628.0,Lenox Ave & W 117 St,40.8025566,-73.9490782,767,295,112,1038,136,1174,1,08/01/2018
725,3629.0,Adam Clayton Powell Blvd & W 126 St,40.809495347779475,-73.94776493310928,410,196,142,575,173,748,1,08/01/2018
726,3631.0,Crown St & Bedford Ave,40.666563000000004,-73.95674100000001,170,55,17,200,42,242,1,08/01/2018
727,3632.0,E 12 St & Avenue B,40.728048571362606,-73.97881150245668,2954,1085,205,3974,270,4244,1,08/01/2018
728,3635.0,W 36 St & 9 Ave,40.754623240291046,-73.99516761302948,258,57,25,317,23,340,1,08/01/2018
729,3637.0,Fulton St & Waverly Ave,40.68323865460341,-73.96599590778352,1088,479,101,1540,128,1668,1,08/01/2018
730,3641.0,Broadway & W 25 St,40.74286877312112,-73.98918628692627,5542,1661,911,6885,1229,8114,1,08/01/2018
731,3646.0,35 Ave & 10 St,40.763154819103725,-73.93985509872438,213,82,19,283,31,314,1,08/01/2018
732,3647.0,48 Ave & 30 Pl,40.74128309355993,-73.93725872039794,151,39,28,195,23,218,1,08/01/2018
733,3648.0,Flushing Ave & Vanderbilt Ave,40.69795031569544,-73.97077560424805,864,396,142,1184,218,1402,1,08/01/2018
734,3649.0,W 129 St & Convent Ave,40.81439443791581,-73.95324736833571,317,117,46,395,85,480,1,08/01/2018
735,3653.0,31 St & 35 Ave,40.75820464696758,-73.92832159996033,556,184,75,750,65,815,1,08/01/2018
736,3654.0,31 St & Northern Blvd,40.75186951421875,-73.93349289894103,265,124,92,425,56,481,1,08/01/2018
737,3656.0,E 2 St & Avenue A,40.72307749068673,-73.98583620786667,2995,1155,279,4074,355,4429,1,08/01/2018
738,3658.0,W 18 St & 9 Ave,40.7435337324616,-74.00367558002472,1981,570,158,2493,216,2709,1,08/01/2018
739,3659.0,W 17 St & 9 Ave,40.7429489166009,-74.00413691997528,2658,886,366,3433,477,3910,1,08/01/2018
740,3660.0,W 16 St & 8 Ave,40.74102150900266,-74.001384973526,6042,1751,452,7701,544,8245,1,08/01/2018
741,3661.0,Montgomery St & Franklin Ave,40.666439306870814,-73.96055638790129,134,56,25,158,57,215,1,08/01/2018
742,3662.0,31 Ave & Steinway St,40.76129389728909,-73.916916847229,506,220,78,697,107,804,1,08/01/2018
743,3663.0,Sterling Pl & 7 Ave,40.67716489469059,-73.97382795810701,777,359,68,1117,87,1204,1,08/01/2018
744,3664.0,North Moore St & Greenwich St,40.72019521437465,-74.0103006362915,3528,893,400,4219,602,4821,1,08/01/2018
745,3666.0,32 St & 30 Ave,40.7664255270288,-73.92062902450563,1164,394,127,1515,170,1685,1,08/01/2018
746,3668.0,Leonard St & Nassau Ave,40.7239567849954,-73.94984364509583,1054,517,89,1528,132,1660,1,08/01/2018
747,3669.0,Henry St & W 9 St,40.67630357634183,-74.00314047932625,234,91,9,326,8,334,1,08/01/2018
748,3671.0,E 81 St & 2 Ave,40.77477944895728,-73.95427465438844,1179,318,134,1449,182,1631,1,08/01/2018
749,3673.0,Dean St & Franklin Ave,40.67759206937376,-73.95563721656801,674,313,73,931,129,1060,1,08/01/2018
750,3674.0,Jay St & York St,40.70140317257725,-73.98672670125961,2097,980,400,2946,531,3477,1,08/01/2018
751,3675.0,3 Ave & E 95 St,40.784596798848916,-73.94968539476396,642,279,73,921,73,994,1,08/01/2018
752,3676.0,Van Brunt St & Van Dyke St,40.675832943912894,-74.01472628116608,564,361,201,825,301,1126,1,08/01/2018
753,3680.0,E 43 St & 5 Ave,40.754120810779256,-73.98025184869765,2802,467,333,3207,395,3602,1,08/01/2018
754,3684.0,W 12 St & W 4 St,40.73756121181137,-74.00398269295692,2820,876,300,3655,341,3996,1,08/01/2018
755,3686.0,Gansevoort St & Hudson St,40.73944820130404,-74.00507032871245,4309,1690,574,5771,802,6573,1,08/01/2018
756,3687.0,E 33 St & 1 Ave,40.74322681432173,-73.97449783980845,3769,1130,273,4797,375,5172,1,08/01/2018
757,3688.0,2 Ave & E 55 St,40.75792020879402,-73.96638214588165,2001,689,167,2643,214,2857,1,08/01/2018
758,3689.0,W 104 St & Amsterdam Ave,40.79904139288298,-73.96649479866028,773,395,167,1115,220,1335,1,08/01/2018
759,3690.0,Park Pl & Church St,40.71334184275907,-74.00935515761375,1241,362,246,1541,308,1849,1,08/01/2018
760,3691.0,28 Ave & 44 St,40.76408932350689,-73.9106512069702,309,135,46,432,58,490,1,08/01/2018
761,3692.0,5 St & Market St,40.6999974843885,-73.97440128028394,301,70,9,367,13,380,1,08/01/2018
762,3693.0,N 11 St & Kent Ave,40.72248188638219,-73.95921930670737,634,361,261,906,350,1256,1,08/01/2018
763,3695.0,E 5 St & 2 Ave,40.72686951528207,-73.9891903102398,2958,1146,351,3979,476,4455,1,08/01/2018
764,3697.0,W 64 St & Thelonious Monk Circle,40.77515953434235,-73.98918695747851,2335,693,143,2870,301,3171,1,08/01/2018
765,3699.0,W 50 St & 9 Ave,40.76360467795863,-73.98917958140373,1148,257,106,1334,177,1511,1,08/01/2018
766,3700.0,E 87 St & 3 Ave,40.779406085297865,-73.95333588123322,785,318,74,1059,118,1177,1,08/01/2018
767,3701.0,Cliff St & Fulton St,40.70831794366396,-74.0050408244133,1181,328,104,1443,170,1613,1,08/01/2018
768,3704.0,47 Ave & Skillman Ave,40.7437524099784,-73.94176483154297,4,2,0,6,0,6,1,08/01/2018
769,3705.0,Thompson St & Bleecker St,40.72840059450829,-73.99968780577183,763,286,134,988,195,1183,1,08/01/2018
0,72.0,W 52 St & 11 Ave,40.76727216,-73.99392888,2821,930,587,3468,870,4338,0,08/01/2018
1,79.0,Franklin St & W Broadway,40.71911552,-74.00666661,1961,728,260,2597,352,2949,0,08/01/2018
2,82.0,St James Pl & Pearl St,40.71117416,-74.00016545,680,220,224,857,267,1124,0,08/01/2018
3,83.0,Atlantic Ave & Fort Greene Pl,40.68382604,-73.97632328,1342,409,199,1710,240,1950,0,08/01/2018
4,119.0,Park Ave & St Edwards St,40.69608941,-73.97803415,234,143,40,335,82,417,0,08/01/2018
5,120.0,Lexington Ave & Classon Ave,40.68676793,-73.95928168,682,396,59,1071,66,1137,0,08/01/2018
6,127.0,Barrow St & Hudson St,40.73172428,-74.00674436,4532,1637,352,6018,503,6521,0,08/01/2018
7,128.0,MacDougal St & Prince St,40.72710258,-74.00297088,4612,2153,463,6615,613,7228,0,08/01/2018
8,143.0,Clinton St & Joralemon St,40.69239502,-73.99337909,1443,867,126,2297,139,2436,0,08/01/2018
9,144.0,Nassau St & Navy St,40.69839895,-73.98068914,705,325,281,930,381,1311,0,08/01/2018
10,146.0,Hudson St & Reade St,40.71625008,-74.0091059,2214,871,244,3062,267,3329,0,08/01/2018
11,150.0,E 2 St & Avenue C,40.720873600000004,-73.98085795,2608,1241,161,3773,237,4010,0,08/01/2018
12,151.0,Cleveland Pl & Spring St,40.72210378668603,-73.99724900722505,5498,2005,1061,7238,1326,8564,0,08/01/2018
13,157.0,Henry St & Atlantic Ave,40.69089272,-73.99612349,1395,625,212,2007,225,2232,0,08/01/2018
14,164.0,E 47 St & 2 Ave,40.75323098,-73.97032517,2224,741,201,2870,296,3166,0,08/01/2018
15,167.0,E 39 St & 3 Ave,40.7489006,-73.97604882,3755,873,292,4456,464,4920,0,08/01/2018
16,168.0,W 18 St & 6 Ave,40.73971301,-73.99456405,5593,2090,451,7585,549,8134,0,08/01/2018
17,173.0,Broadway & W 49 St,40.76068327096592,-73.98452728986742,4855,1080,1100,5622,1413,7035,0,08/01/2018
18,174.0,E 25 St & 1 Ave,40.7381765,-73.97738662,2206,924,189,3100,219,3319,0,08/01/2018
19,195.0,Liberty St & Broadway,40.70905623,-74.01043382,3195,834,530,3872,687,4559,0,08/01/2018
20,212.0,W 16 St & The High Line,40.74334935,-74.00681753,3137,1041,574,3958,794,4752,0,08/01/2018
21,216.0,Columbia Heights & Cranberry St,40.70037867,-73.99548059,421,116,208,483,262,745,0,08/01/2018
22,217.0,Old Fulton St,40.70277159,-73.99383605,2070,1135,1480,2670,2015,4685,0,08/01/2018
23,223.0,W 13 St & 7 Ave,40.73781509,-73.99994661,3321,1117,219,4408,249,4657,0,08/01/2018
24,228.0,E 48 St & 3 Ave,40.7546011026,-73.971878855,2236,493,278,2625,382,3007,0,08/01/2018
25,229.0,Great Jones St,40.72743423,-73.99379025,6070,2414,465,8313,636,8949,0,08/01/2018
26,232.0,Cadman Plaza E & Tillary St,40.69597683,-73.99014892,674,263,893,593,1237,1830,0,08/01/2018
27,236.0,St Marks Pl & 2 Ave,40.7284186,-73.98713956,3768,1457,470,5082,613,5695,0,08/01/2018
28,237.0,E 11 St & 2 Ave,40.73047309,-73.98672378,4000,1514,472,5379,607,5986,0,08/01/2018
29,238.0,Bank St & Washington St,40.7361967,-74.00859207,2223,883,379,2862,623,3485,0,08/01/2018
30,239.0,Willoughby St & Fleet St,40.69196566,-73.9813018,1616,790,103,2366,143,2509,0,08/01/2018
31,241.0,DeKalb Ave & S Portland Ave,40.68981035,-73.97493121,873,452,137,1276,186,1462,0,08/01/2018
32,242.0,Carlton Ave & Flushing Ave,40.697787,-73.973736,861,342,114,1144,173,1317,0,08/01/2018
33,243.0,Fulton St & Rockwell Pl,40.688226,-73.979382,1147,499,75,1652,69,1721,0,08/01/2018
34,244.0,Willoughby Ave & Hall St,40.69196035,-73.96536851,1094,445,84,1541,82,1623,0,08/01/2018
35,245.0,Myrtle Ave & St Edwards St,40.69327018,-73.97703874,444,208,84,627,109,736,0,08/01/2018
36,247.0,Perry St & Bleecker St,40.73535398,-74.00483091,1804,639,277,2355,365,2720,0,08/01/2018
37,248.0,Laight St & Hudson St,40.72185379,-74.00771779,924,252,89,1126,139,1265,0,08/01/2018
38,249.0,Harrison St & Hudson St,40.71870987,-74.0090009,1131,440,111,1553,129,1682,0,08/01/2018
39,251.0,Mott St & Prince St,40.72317958,-73.99480012,4100,1670,573,5567,776,6343,0,08/01/2018
40,252.0,MacDougal St & Washington Sq,40.73226398,-73.99852205,2424,988,430,3228,614,3842,0,08/01/2018
41,253.0,W 13 St & 5 Ave,40.73543934,-73.99453948,4,7,0,11,0,11,0,08/01/2018
42,254.0,W 11 St & 6 Ave,40.73532427,-73.99800419,1974,910,180,2856,208,3064,0,08/01/2018
43,257.0,Lispenard St & Broadway,40.71939226,-74.00247214,2788,919,319,3515,511,4026,0,08/01/2018
44,258.0,DeKalb Ave & Vanderbilt Ave,40.68940747,-73.96885458,1094,445,107,1503,143,1646,0,08/01/2018
45,259.0,South St & Whitehall St,40.70122128,-74.01234218,2453,895,787,3045,1090,4135,0,08/01/2018
46,260.0,Broad St & Bridge St,40.70365182,-74.01167797,1174,345,139,1469,189,1658,0,08/01/2018
47,261.0,Johnson St & Gold St,40.69474881,-73.98362464,1040,381,184,1368,237,1605,0,08/01/2018
48,262.0,Washington Park,40.6917823,-73.97372990000001,736,333,83,1059,93,1152,0,08/01/2018
49,264.0,Maiden Ln & Pearl St,40.70706456,-74.00731853,2000,573,212,2489,296,2785,0,08/01/2018
50,265.0,Stanton St & Chrystie St,40.72229346,-73.99147535,3542,1400,452,4755,639,5394,0,08/01/2018
51,266.0,Avenue D & E 8 St,40.72368361,-73.97574813,1082,579,111,1651,121,1772,0,08/01/2018
52,267.0,Broadway & W 36 St,40.75097711,-73.98765428,2889,873,460,3622,600,4222,0,08/01/2018
53,268.0,Howard St & Centre St,40.71910537,-73.99973337,3030,1189,555,4025,749,4774,0,08/01/2018
54,270.0,Adelphi St & Myrtle Ave,40.69308257,-73.97178913,1308,574,60,1854,88,1942,0,08/01/2018
55,274.0,Lafayette Ave & Fort Greene Pl,40.68691865,-73.976682,1265,703,144,1961,151,2112,0,08/01/2018
56,275.0,Washington Ave & Greene Ave,40.68650065,-73.96563307,727,331,70,1056,72,1128,0,08/01/2018
57,276.0,Duane St & Greenwich St,40.71748752,-74.0104554,1539,572,163,2054,220,2274,0,08/01/2018
58,278.0,Concord St & Bridge St,40.69766564,-73.98476437,537,277,189,737,266,1003,0,08/01/2018
59,279.0,Peck Slip & Front St,40.707873,-74.00166999999999,2125,970,803,2791,1107,3898,0,08/01/2018
60,280.0,E 10 St & 5 Ave,40.73331967,-73.99510132,2040,835,298,2878,295,3173,0,08/01/2018
61,281.0,Grand Army Plaza & Central Park S,40.764397100000004,-73.97371465,4107,1423,2552,5082,3000,8082,0,08/01/2018
62,282.0,Kent Ave & S 11 St,40.7076449441757,-73.96841526031494,1110,605,456,1587,584,2171,0,08/01/2018
63,285.0,Broadway & E 14 St,40.73454567,-73.99074142,7079,2486,632,9329,868,10197,0,08/01/2018
64,289.0,Monroe St & Classon Ave,40.684568299999995,-73.95881081,443,279,56,701,77,778,0,08/01/2018
65,291.0,Madison St & Montgomery St,40.713126,-73.984844,1206,381,153,1576,164,1740,0,08/01/2018
66,293.0,Lafayette St & E 8 St,40.73020660529954,-73.99102628231049,6244,2210,805,8289,970,9259,0,08/01/2018
67,295.0,Pike St & E Broadway,40.71406667,-73.99293911,2010,730,280,2733,287,3020,0,08/01/2018
68,296.0,Division St & Bowery,40.71413089,-73.99704679999999,2603,1009,399,3532,479,4011,0,08/01/2018
69,297.0,E 15 St & 3 Ave,40.734232,-73.986923,3862,1473,240,5246,329,5575,0,08/01/2018
70,298.0,3 Ave & Schermerhorn St,40.68683208,-73.9796772,1086,511,138,1557,178,1735,0,08/01/2018
71,301.0,E 2 St & Avenue B,40.72217444,-73.98368779,3071,1260,312,4221,422,4643,0,08/01/2018
72,302.0,Avenue D & E 3 St,40.72082834,-73.97793172,1369,741,99,2067,142,2209,0,08/01/2018
73,303.0,Mercer St & Spring St,40.72362738,-73.99949601,2595,956,482,3341,692,4033,0,08/01/2018
74,304.0,Broadway & Battery Pl,40.70463334,-74.01361706,3567,1322,819,4653,1055,5708,0,08/01/2018
75,305.0,E 58 St & 3 Ave,40.76095756,-73.96724467,3256,826,315,3986,411,4397,0,08/01/2018
76,306.0,Cliff St & Fulton St_1,40.70823502,-74.00530063,976,257,103,1186,150,1336,0,08/01/2018
77,307.0,Canal St & Rutgers St,40.71427487,-73.98990025,3089,1137,314,4244,296,4540,0,08/01/2018
78,308.0,St James Pl & Oliver St,40.71307916,-73.99851193,1730,560,239,2218,311,2529,0,08/01/2018
79,309.0,Murray St & West St,40.7149787,-74.013012,2346,888,531,2993,772,3765,0,08/01/2018
80,310.0,State St & Smith St,40.68926942,-73.98912867,1286,604,126,1834,182,2016,0,08/01/2018
81,311.0,Norfolk St & Broome St,40.7172274,-73.98802084,2591,856,303,3354,396,3750,0,08/01/2018
82,312.0,Allen St & Stanton St,40.722055,-73.989111,3912,1466,584,5179,783,5962,0,08/01/2018
83,313.0,Washington Ave & Park Ave,40.69610226,-73.96751037,1101,411,165,1496,181,1677,0,08/01/2018
84,314.0,Cadman Plaza West & Montague St,40.69383,-73.990539,1286,563,152,1786,215,2001,0,08/01/2018
85,315.0,South St & Gouverneur Ln,40.70355377,-74.00670227,4040,1616,705,5366,995,6361,0,08/01/2018
86,316.0,Fulton St & William St,40.70955958,-74.00653609,1975,602,233,2489,321,2810,0,08/01/2018
87,317.0,E 6 St & Avenue B,40.72453734,-73.98185424,2406,1227,161,3565,229,3794,0,08/01/2018
88,319.0,Fulton St & Broadway,40.711065999999995,-74.009447,3454,912,764,4143,987,5130,0,08/01/2018
89,320.0,Leonard St & Church St,40.717571,-74.005549,1787,558,153,2270,228,2498,0,08/01/2018
90,321.0,Cadman Plaza E & Red Cross Pl,40.69991755,-73.98971773,1476,533,715,1776,948,2724,0,08/01/2018
91,322.0,Clinton St & Tillary St,40.696191999999996,-73.991218,757,350,564,1003,668,1671,0,08/01/2018
92,323.0,Lawrence St & Willoughby St,40.69236178,-73.98631746,1708,607,147,2271,191,2462,0,08/01/2018
93,324.0,DeKalb Ave & Hudson Ave,40.689888,-73.981013,2225,1193,182,3362,238,3600,0,08/01/2018
94,325.0,E 19 St & 3 Ave,40.73624527,-73.98473765,2619,932,136,3522,165,3687,0,08/01/2018
95,326.0,E 11 St & 1 Ave,40.72953837,-73.98426726,3503,1344,315,4743,419,5162,0,08/01/2018
96,327.0,Vesey Pl & River Terrace,40.715337899999994,-74.01658354,5501,1607,789,6771,1126,7897,0,08/01/2018
97,328.0,Watts St & Greenwich St,40.72405549,-74.00965965,2967,825,337,3637,492,4129,0,08/01/2018
98,330.0,Reade St & Broadway,40.71450451,-74.00562789,2061,557,237,2551,304,2855,0,08/01/2018
99,331.0,Pike St & Monroe St,40.71173107,-73.99193043,1201,614,269,1829,255,2084,0,08/01/2018
100,332.0,Cherry St,40.71219906,-73.97948148,1250,583,255,1741,347,2088,0,08/01/2018
101,334.0,W 20 St & 7 Ave,40.74238787,-73.99726235,4016,1080,217,5044,269,5313,0,08/01/2018
102,335.0,Washington Pl & Broadway,40.72903917,-73.99404649,2638,768,226,3319,313,3632,0,08/01/2018
103,336.0,Sullivan St & Washington Sq,40.73047747,-73.99906065,4888,1698,668,6282,972,7254,0,08/01/2018
104,337.0,Old Slip & Front St,40.703799200000006,-74.00838676,1675,435,155,2036,229,2265,0,08/01/2018
105,339.0,Avenue D & E 12 St,40.72580614,-73.97422494,804,398,76,1161,117,1278,0,08/01/2018
106,340.0,Madison St & Clinton St,40.71269042,-73.98776323,1477,726,231,2260,174,2434,0,08/01/2018
107,341.0,Stanton St & Mangin St,40.71782143,-73.97628939,980,517,135,1424,208,1632,0,08/01/2018
108,342.0,Columbia St & Rivington St,40.71739973,-73.98016555,1101,726,98,1797,128,1925,0,08/01/2018
109,343.0,Clinton Ave & Flushing Ave,40.69794,-73.96986848,589,274,255,806,312,1118,0,08/01/2018
110,344.0,Monroe St & Bedford Ave,40.6851443,-73.95380904,690,439,105,1131,103,1234,0,08/01/2018
111,345.0,W 13 St & 6 Ave,40.73649403,-73.99704374,4060,1510,330,5432,468,5900,0,08/01/2018
112,346.0,Bank St & Hudson St,40.73652889,-74.00618026,2267,971,220,3117,341,3458,0,08/01/2018
113,347.0,Greenwich St & W Houston St,40.728846000000004,-74.00859100000001,4534,1493,432,5744,715,6459,0,08/01/2018
114,349.0,Rivington St & Ridge St,40.71850211,-73.98329859,1436,578,186,1958,242,2200,0,08/01/2018
115,350.0,Clinton St & Grand St,40.71559509,-73.9870295,2189,1109,264,3278,284,3562,0,08/01/2018
116,351.0,Front St & Maiden Ln,40.70530954,-74.00612572,2088,753,388,2682,547,3229,0,08/01/2018
117,353.0,S Portland Ave & Hanson Pl,40.68539567,-73.97431458,739,417,75,1119,112,1231,0,08/01/2018
118,354.0,Emerson Pl & Myrtle Ave,40.69363137,-73.96223558,1063,486,109,1515,143,1658,0,08/01/2018
119,355.0,Bayard St & Baxter St,40.71602118,-73.99974372,2488,841,423,3230,522,3752,0,08/01/2018
120,356.0,Bialystoker Pl & Delancey St,40.71622644,-73.98261206,942,496,146,1429,155,1584,0,08/01/2018
121,357.0,E 11 St & Broadway,40.73261787,-73.99158043,1561,653,158,2164,208,2372,0,08/01/2018
122,358.0,Christopher St & Greenwich St,40.73291553,-74.00711384,6056,2236,631,7989,934,8923,0,08/01/2018
123,359.0,E 47 St & Park Ave,40.75510267,-73.97498696,6362,937,495,7257,537,7794,0,08/01/2018
124,360.0,William St & Pine St,40.70717936,-74.00887308,1618,498,233,2028,321,2349,0,08/01/2018
125,361.0,Allen St & Hester St,40.71605866,-73.99190759,3565,1522,336,5017,406,5423,0,08/01/2018
126,362.0,Broadway & W 37 St,40.75172632,-73.98753523,1404,373,193,1732,238,1970,0,08/01/2018
127,363.0,West Thames St,40.70834698,-74.01713445,2944,1366,527,4048,789,4837,0,08/01/2018
128,364.0,Lafayette Ave & Classon Ave,40.68900443,-73.96023854,1134,522,139,1626,169,1795,0,08/01/2018
129,365.0,Fulton St & Grand Ave,40.68223166,-73.9614583,761,393,91,1161,84,1245,0,08/01/2018
130,366.0,Clinton Ave & Myrtle Ave,40.693261,-73.968896,1637,716,135,2303,185,2488,0,08/01/2018
131,368.0,Carmine St & 6 Ave,40.73038599,-74.00214988,6504,2137,854,8256,1239,9495,0,08/01/2018
132,369.0,Washington Pl & 6 Ave,40.73224119,-74.00026394,2339,614,252,2873,332,3205,0,08/01/2018
133,372.0,Franklin Ave & Myrtle Ave,40.694546087246025,-73.95801365375519,444,225,118,604,183,787,0,08/01/2018
134,373.0,Willoughby Ave & Walworth St,40.69331716,-73.95381995,452,135,55,562,80,642,0,08/01/2018
135,376.0,John St & William St,40.70862144,-74.00722156,1812,628,167,2412,195,2607,0,08/01/2018
136,377.0,6 Ave & Canal St,40.72243797,-74.00566443,3637,1023,513,4571,602,5173,0,08/01/2018
137,379.0,W 31 St & 7 Ave,40.749156,-73.9916,6398,1229,427,7451,603,8054,0,08/01/2018
138,380.0,W 4 St & 7 Ave S,40.73401143,-74.00293877,4118,1423,571,5371,741,6112,0,08/01/2018
139,382.0,University Pl & E 14 St,40.73492695,-73.99200509,6055,2337,510,8182,720,8902,0,08/01/2018
140,383.0,Greenwich Ave & Charles St,40.735238,-74.000271,3465,1380,299,4729,415,5144,0,08/01/2018
141,386.0,Centre St & Worth St,40.71494807,-74.00234482,1794,710,656,2261,899,3160,0,08/01/2018
142,387.0,Centre St & Chambers St,40.71273266,-74.0046073,3599,1681,3730,4166,4844,9010,0,08/01/2018
143,388.0,W 26 St & 10 Ave,40.749717753,-74.002950346,2567,1126,290,3658,325,3983,0,08/01/2018
144,389.0,Broadway & Berry St,40.71044554,-73.96525063,1491,749,208,2116,332,2448,0,08/01/2018
145,390.0,Duffield St & Willoughby St,40.69221589,-73.9842844,1531,416,152,1900,199,2099,0,08/01/2018
146,391.0,Clark St & Henry St,40.69760127,-73.99344559,1693,603,257,2249,304,2553,0,08/01/2018
147,392.0,Jay St & Tech Pl,40.695065,-73.987167,1157,567,732,1561,895,2456,0,08/01/2018
148,393.0,E 5 St & Avenue C,40.72299208,-73.97995466,1501,675,96,2141,131,2272,0,08/01/2018
149,394.0,E 9 St & Avenue C,40.72521311,-73.97768752,2436,1082,195,3437,276,3713,0,08/01/2018
150,396.0,Lefferts Pl & Franklin Ave,40.680342423,-73.9557689392,562,211,69,760,82,842,0,08/01/2018
151,397.0,Fulton St & Clermont Ave,40.68415748,-73.96922273,483,254,47,727,57,784,0,08/01/2018
152,398.0,Atlantic Ave & Furman St,40.69165183,-73.99997859999999,1567,984,601,2344,808,3152,0,08/01/2018
153,399.0,Lafayette Ave & St James Pl,40.68851534,-73.9647628,858,328,60,1173,73,1246,0,08/01/2018
154,400.0,Pitt St & Stanton St,40.71926081,-73.98178024,763,274,96,1054,79,1133,0,08/01/2018
155,401.0,Allen St & Rivington St,40.72019576,-73.98997825,3708,1393,464,4942,623,5565,0,08/01/2018
156,402.0,Broadway & E 22 St,40.740343200000005,-73.98955109,8112,2831,769,10782,930,11712,0,08/01/2018
157,403.0,E 2 St & 2 Ave,40.72502876,-73.99069656,4035,1708,407,5571,579,6150,0,08/01/2018
158,405.0,Washington St & Gansevoort St,40.739323,-74.008119,3897,1607,1172,4990,1686,6676,0,08/01/2018
159,406.0,Hicks St & Montague St,40.69512845,-73.99595065,1384,613,213,1935,275,2210,0,08/01/2018
160,407.0,Henry St & Poplar St,40.700469,-73.991454,438,154,178,552,218,770,0,08/01/2018
161,408.0,Market St & Cherry St,40.71076228,-73.99400398,1437,467,248,1886,266,2152,0,08/01/2018
162,409.0,DeKalb Ave & Skillman St,40.6906495,-73.95643107,579,324,120,895,128,1023,0,08/01/2018
163,410.0,Suffolk St & Stanton St,40.72066442,-73.98517977,3333,1241,467,4442,599,5041,0,08/01/2018
164,411.0,E 6 St & Avenue D,40.72228087,-73.97668709,1245,680,118,1875,168,2043,0,08/01/2018
165,412.0,Forsyth St & Canal St,40.715815500000005,-73.99422366,2916,1139,833,3881,1007,4888,0,08/01/2018
166,414.0,Pearl St & Anchorage Pl,40.70281858,-73.98765762,1433,537,421,1808,583,2391,0,08/01/2018
167,415.0,Pearl St & Hanover Square,40.7047177,-74.00926027,1946,641,243,2502,328,2830,0,08/01/2018
168,416.0,Cumberland St & Lafayette Ave,40.68753406,-73.97265183,920,470,87,1380,97,1477,0,08/01/2018
169,417.0,Barclay St & Church St,40.71291224,-74.01020234,3555,892,632,4272,807,5079,0,08/01/2018
170,418.0,Front St & Gold St,40.70224,-73.982578,941,448,211,1357,243,1600,0,08/01/2018
171,419.0,Carlton Ave & Park Ave,40.69580705,-73.97355569,499,237,43,721,58,779,0,08/01/2018
172,420.0,Clermont Ave & Lafayette Ave,40.68764484,-73.96968902,580,282,68,860,70,930,0,08/01/2018
173,421.0,Clermont Ave & Park Ave,40.69573398,-73.97129668,470,235,53,711,47,758,0,08/01/2018
174,422.0,W 59 St & 10 Ave,40.770513,-73.988038,2384,691,203,2958,320,3278,0,08/01/2018
175,423.0,W 54 St & 9 Ave,40.76584941,-73.98690506,2685,696,330,3215,496,3711,0,08/01/2018
176,426.0,West St & Chambers St,40.71754834,-74.01322069,6858,3453,2080,9471,2920,12391,0,08/01/2018
177,427.0,Bus Slip & State St,40.701907,-74.013942,1694,609,827,1896,1234,3130,0,08/01/2018
178,432.0,E 7 St & Avenue A,40.72621788,-73.98379855,4222,1383,310,5463,452,5915,0,08/01/2018
179,433.0,E 13 St & Avenue A,40.72955361,-73.98057249,4059,1338,309,5338,368,5706,0,08/01/2018
180,435.0,W 21 St & 6 Ave,40.74173969,-73.99415556,7543,3045,498,10503,583,11086,0,08/01/2018
181,436.0,Hancock St & Bedford Ave,40.68216564,-73.95399026,427,240,122,689,100,789,0,08/01/2018
182,437.0,Macon St & Nostrand Ave,40.6809833854,-73.9500479759,1120,425,102,1535,112,1647,0,08/01/2018
183,438.0,St Marks Pl & 1 Ave,40.72779126,-73.98564945,3697,1542,314,5135,418,5553,0,08/01/2018
184,440.0,E 45 St & 3 Ave,40.75255434,-73.97282625,2320,582,237,2851,288,3139,0,08/01/2018
185,441.0,E 52 St & 2 Ave,40.756014,-73.967416,2260,628,230,2785,333,3118,0,08/01/2018
186,442.0,W 27 St & 7 Ave,40.746646999999996,-73.993915,3706,1193,215,4813,301,5114,0,08/01/2018
187,443.0,Bedford Ave & S 9 St,40.70853074,-73.96408963,315,125,107,398,149,547,0,08/01/2018
188,445.0,E 10 St & Avenue A,40.72740794,-73.98142006,5903,2250,510,7931,732,8663,0,08/01/2018
189,446.0,W 24 St & 7 Ave,40.74487634,-73.99529885,5095,1842,402,6916,423,7339,0,08/01/2018
190,447.0,8 Ave & W 52 St,40.76370739,-73.9851615,3365,891,538,4093,701,4794,0,08/01/2018
191,448.0,W 37 St & 10 Ave,40.75660359,-73.9979009,4065,1181,250,5058,438,5496,0,08/01/2018
192,450.0,W 49 St & 8 Ave,40.76227205,-73.98788205,4649,840,360,5367,482,5849,0,08/01/2018
193,453.0,W 22 St & 8 Ave,40.74475148,-73.99915362,4339,1533,301,5817,356,6173,0,08/01/2018
194,454.0,E 51 St & 1 Ave,40.75455731,-73.96592976,1569,536,152,2030,227,2257,0,08/01/2018
195,455.0,1 Ave & E 44 St,40.75001986,-73.96905301,2024,950,462,2843,593,3436,0,08/01/2018
196,456.0,E 53 St & Madison Ave,40.75971079999999,-73.97402311,2650,484,374,3031,477,3508,0,08/01/2018
197,457.0,Broadway & W 58 St,40.76695317,-73.98169333,4828,1797,1352,6054,1923,7977,0,08/01/2018
198,458.0,11 Ave & W 27 St,40.751396,-74.00522600000001,4835,1660,703,6114,1084,7198,0,08/01/2018
199,459.0,W 20 St & 11 Ave,40.746745000000004,-74.007756,6668,2320,1350,8375,1963,10338,0,08/01/2018
200,460.0,S 4 St & Wythe Ave,40.71285887,-73.96590294,2767,1460,511,3938,800,4738,0,08/01/2018
201,461.0,E 20 St & 2 Ave,40.73587678,-73.98205027,3496,1103,248,4518,329,4847,0,08/01/2018
202,462.0,W 22 St & 10 Ave,40.74691959,-74.00451887,4138,1398,543,5352,727,6079,0,08/01/2018
203,465.0,Broadway & W 41 St,40.75513557,-73.98658032,5035,1206,691,5956,976,6932,0,08/01/2018
204,466.0,W 25 St & 6 Ave,40.74395411,-73.99144871,4442,1271,219,5576,356,5932,0,08/01/2018
205,467.0,Dean St & 4 Ave,40.68312489,-73.97895137,1939,616,176,2555,176,2731,0,08/01/2018
206,468.0,Broadway & W 56 St,40.7652654,-73.98192338,3423,1061,489,4339,634,4973,0,08/01/2018
207,469.0,Broadway & W 53 St,40.76344058,-73.98268129,2605,710,366,3207,474,3681,0,08/01/2018
208,470.0,W 20 St & 8 Ave,40.74345335,-74.00004031,3237,971,246,4118,336,4454,0,08/01/2018
209,471.0,Grand St & Havemeyer St,40.71286844,-73.95698119,1471,911,216,2300,298,2598,0,08/01/2018
210,472.0,E 32 St & Park Ave,40.745712100000006,-73.98194829,4507,1305,347,5702,457,6159,0,08/01/2018
211,473.0,Rivington St & Chrystie St,40.72110063,-73.99192540000001,1911,863,349,2673,450,3123,0,08/01/2018
212,474.0,5 Ave & E 29 St,40.7451677,-73.98683077,4168,1084,434,5075,611,5686,0,08/01/2018
213,476.0,E 31 St & 3 Ave,40.74394314,-73.97966069,3375,1060,252,4397,290,4687,0,08/01/2018
214,477.0,W 41 St & 8 Ave,40.75640548,-73.9900262,7644,1141,540,8540,785,9325,0,08/01/2018
215,478.0,11 Ave & W 41 St,40.76030096,-73.99884222,3932,1084,400,4767,649,5416,0,08/01/2018
216,479.0,9 Ave & W 45 St,40.76019252,-73.9912551,4901,1229,536,5964,702,6666,0,08/01/2018
217,480.0,W 53 St & 10 Ave,40.76669671,-73.99061728,3011,820,224,3798,257,4055,0,08/01/2018
218,481.0,S 3 St & Bedford Ave,40.71260486,-73.96264403,1492,777,261,2131,399,2530,0,08/01/2018
219,482.0,W 15 St & 7 Ave,40.73935542,-73.99931783,4479,1403,340,5910,312,6222,0,08/01/2018
220,483.0,E 12 St & 3 Ave,40.73223272,-73.98889957,3980,1397,262,5253,386,5639,0,08/01/2018
221,484.0,W 44 St & 5 Ave,40.75500254,-73.98014437,2482,466,394,2845,497,3342,0,08/01/2018
222,485.0,W 37 St & 5 Ave,40.75038009,-73.98338988,2784,665,454,3341,562,3903,0,08/01/2018
223,486.0,Broadway & W 29 St,40.7462009,-73.98855723,3901,1068,472,4788,653,5441,0,08/01/2018
224,487.0,E 20 St & FDR Drive,40.73314259,-73.97573881,3555,1342,278,4770,405,5175,0,08/01/2018
225,490.0,8 Ave & W 33 St,40.751551,-73.993934,7456,1344,695,8559,936,9495,0,08/01/2018
226,491.0,E 24 St & Park Ave S,40.74096374,-73.98602213,5823,1777,643,7445,798,8243,0,08/01/2018
227,492.0,W 33 St & 7 Ave,40.75019995,-73.99093085,6012,898,534,6780,664,7444,0,08/01/2018
228,493.0,W 45 St & 6 Ave,40.7568001,-73.98291153,211,49,35,242,53,295,0,08/01/2018
229,494.0,W 26 St & 8 Ave,40.74734825,-73.99723551,4398,1344,271,5633,380,6013,0,08/01/2018
230,495.0,W 47 St & 10 Ave,40.76269882,-73.99301222,3563,784,265,4230,382,4612,0,08/01/2018
231,496.0,E 16 St & 5 Ave,40.73726186,-73.99238967,4411,1743,324,6095,383,6478,0,08/01/2018
232,497.0,E 17 St & Broadway,40.73704984,-73.99009296,8422,3474,981,11665,1212,12877,0,08/01/2018
233,498.0,Broadway & W 32 St,40.74854862,-73.98808416,4526,1005,559,5447,643,6090,0,08/01/2018
234,499.0,Broadway & W 60 St,40.76915505,-73.98191841,5087,1802,1867,6276,2480,8756,0,08/01/2018
235,500.0,Broadway & W 51 St,40.76228826,-73.98336183,2618,514,435,3003,564,3567,0,08/01/2018
236,501.0,FDR Drive & E 35 St,40.744219,-73.97121214,3505,1086,606,4337,860,5197,0,08/01/2018
237,502.0,Henry St & Grand St,40.714215,-73.981346,1890,987,176,2884,169,3053,0,08/01/2018
238,503.0,E 20 St & Park Ave,40.73827428,-73.98751968,3003,921,239,3891,272,4163,0,08/01/2018
239,504.0,1 Ave & E 16 St,40.73221853,-73.98165557,5068,1897,320,6889,396,7285,0,08/01/2018
240,505.0,6 Ave & W 33 St,40.74901271,-73.98848395,5780,1630,976,7149,1237,8386,0,08/01/2018
241,507.0,E 25 St & 2 Ave,40.73912601,-73.97973776,3826,1220,323,4958,411,5369,0,08/01/2018
242,508.0,W 46 St & 11 Ave,40.76341379,-73.99667444,2952,1062,545,3738,821,4559,0,08/01/2018
243,509.0,9 Ave & W 22 St,40.7454973,-74.00197139,4581,1341,415,5799,538,6337,0,08/01/2018
244,513.0,W 56 St & 10 Ave,40.768254,-73.988639,2588,595,186,3069,300,3369,0,08/01/2018
245,514.0,12 Ave & W 40 St,40.76087502,-74.00277668,6558,2700,2312,8284,3286,11570,0,08/01/2018
246,515.0,W 43 St & 10 Ave,40.76009437,-73.99461843,3797,987,264,4697,351,5048,0,08/01/2018
247,516.0,E 47 St & 1 Ave,40.75206862,-73.96784384,1227,537,173,1709,228,1937,0,08/01/2018
