,station_id,station_name,station_latitude,station_longitude,gender_male,gender_female,gender_unknown,subscriber,customer,total_uses,station_type,date
0,72,W 52 St & 11 Ave,40.76727216,-73.99392888,2853,969,607,3525,904,4429,1,07/01/2018
1,79,Franklin St & W Broadway,40.71911552,-74.00666661,1866,577,301,2339,405,2744,1,07/01/2018
2,82,St James Pl & Pearl St,40.71117416,-74.00016545,868,324,62,1119,135,1254,1,07/01/2018
3,83,Atlantic Ave & Fort Greene Pl,40.68382604,-73.97632328,1219,395,211,1566,259,1825,1,07/01/2018
4,119,Park Ave & St Edwards St,40.69608941,-73.97803415,170,74,49,235,58,293,1,07/01/2018
5,120,Lexington Ave & Classon Ave,40.68676793,-73.95928168,734,438,74,1125,121,1246,1,07/01/2018
6,127,Barrow St & Hudson St,40.73172428,-74.00674436,4341,1526,452,5688,631,6319,1,07/01/2018
7,128,MacDougal St & Prince St,40.72710258,-74.00297088,4392,1915,513,6038,782,6820,1,07/01/2018
8,143,Clinton St & Joralemon St,40.69239502,-73.99337909,1558,750,100,2285,123,2408,1,07/01/2018
9,144,Nassau St & Navy St,40.69839895,-73.98068914,538,325,268,788,343,1131,1,07/01/2018
10,146,Hudson St & Reade St,40.71625008,-74.0091059,2099,747,251,2776,321,3097,1,07/01/2018
11,150,E 2 St & Avenue C,40.720873600000004,-73.98085795,2337,1044,160,3314,227,3541,1,07/01/2018
12,151,Cleveland Pl & Spring St,40.72210378668603,-73.99724900722505,4951,1979,855,6709,1076,7785,1,07/01/2018
13,157,Henry St & Atlantic Ave,40.69089272,-73.99612349,1224,675,219,1861,257,2118,1,07/01/2018
14,161,LaGuardia Pl & W 3 St,40.72917025,-73.99810231,383,124,67,489,85,574,1,07/01/2018
15,164,E 47 St & 2 Ave,40.75323098,-73.97032517,2103,672,167,2687,255,2942,1,07/01/2018
16,167,E 39 St & 3 Ave,40.7489006,-73.97604882,3492,789,301,4108,474,4582,1,07/01/2018
17,168,W 18 St & 6 Ave,40.73971301,-73.99456405,5230,1793,416,6906,533,7439,1,07/01/2018
18,173,Broadway & W 49 St,40.76068327096592,-73.98452728986742,4659,1011,822,5364,1128,6492,1,07/01/2018
19,174,E 25 St & 1 Ave,40.7381765,-73.97738662,2263,851,95,3048,161,3209,1,07/01/2018
20,195,Liberty St & Broadway,40.70905623,-74.01043382,3077,772,564,3583,830,4413,1,07/01/2018
21,212,W 16 St & The High Line,40.74334935,-74.00681753,3038,1033,594,3823,842,4665,1,07/01/2018
22,216,Columbia Heights & Cranberry St,40.70037867,-73.99548059,467,194,261,581,341,922,1,07/01/2018
23,217,Old Fulton St,40.70277159,-73.99383605,1766,950,1518,2087,2147,4234,1,07/01/2018
24,223,W 13 St & 7 Ave,40.73781509,-73.99994661,3171,1002,258,4102,329,4431,1,07/01/2018
25,228,E 48 St & 3 Ave,40.7546011026,-73.971878855,2172,465,273,2452,458,2910,1,07/01/2018
26,229,Great Jones St,40.72743423,-73.99379025,5227,1987,425,7137,502,7639,1,07/01/2018
27,232,Cadman Plaza E & Tillary St,40.69597683,-73.99014892,754,380,697,910,921,1831,1,07/01/2018
28,236,St Marks Pl & 2 Ave,40.7284186,-73.98713956,3809,1417,540,5079,687,5766,1,07/01/2018
29,237,E 11 St & 2 Ave,40.73047309,-73.98672378,4083,1559,228,5423,447,5870,1,07/01/2018
30,238,Bank St & Washington St,40.7361967,-74.00859207,2003,902,478,2668,715,3383,1,07/01/2018
31,239,Willoughby St & Fleet St,40.69196566,-73.9813018,1698,784,142,2446,178,2624,1,07/01/2018
32,241,DeKalb Ave & S Portland Ave,40.68981035,-73.97493121,970,577,142,1512,177,1689,1,07/01/2018
33,242,Carlton Ave & Flushing Ave,40.697787,-73.973736,656,308,113,923,154,1077,1,07/01/2018
34,243,Fulton St & Rockwell Pl,40.688226,-73.979382,798,315,27,1103,37,1140,1,07/01/2018
35,244,Willoughby Ave & Hall St,40.69196035,-73.96536851,975,551,94,1514,106,1620,1,07/01/2018
36,245,Myrtle Ave & St Edwards St,40.69327018,-73.97703874,505,241,88,698,136,834,1,07/01/2018
37,247,Perry St & Bleecker St,40.73535398,-74.00483091,1936,715,244,2532,363,2895,1,07/01/2018
38,248,Laight St & Hudson St,40.72185379,-74.00771779,911,259,68,1124,114,1238,1,07/01/2018
39,249,Harrison St & Hudson St,40.71870987,-74.0090009,1150,392,117,1509,150,1659,1,07/01/2018
40,251,Mott St & Prince St,40.72317958,-73.99480012,3767,1564,485,5196,620,5816,1,07/01/2018
41,252,MacDougal St & Washington Sq,40.73226398,-73.99852205,2450,920,450,3195,625,3820,1,07/01/2018
42,253,W 13 St & 5 Ave,40.73543934,-73.99453948,2230,868,227,3030,295,3325,1,07/01/2018
43,254,W 11 St & 6 Ave,40.73532427,-73.99800419,1808,798,181,2549,238,2787,1,07/01/2018
44,257,Lispenard St & Broadway,40.71939226,-74.00247214,2511,848,386,3191,554,3745,1,07/01/2018
45,258,DeKalb Ave & Vanderbilt Ave,40.68940747,-73.96885458,1276,544,154,1813,161,1974,1,07/01/2018
46,259,South St & Whitehall St,40.70122128,-74.01234218,2165,855,1004,2697,1327,4024,1,07/01/2018
47,260,Broad St & Bridge St,40.70365182,-74.01167797,470,123,95,559,129,688,1,07/01/2018
48,261,Johnson St & Gold St,40.69474881,-73.98362464,946,352,141,1253,186,1439,1,07/01/2018
49,262,Washington Park,40.6917823,-73.97372990000001,847,366,84,1209,88,1297,1,07/01/2018
50,264,Maiden Ln & Pearl St,40.70706456,-74.00731853,1729,516,161,2119,287,2406,1,07/01/2018
51,265,Stanton St & Chrystie St,40.72229346,-73.99147535,3630,1363,448,4818,623,5441,1,07/01/2018
52,266,Avenue D & E 8 St,40.72368361,-73.97574813,1168,684,145,1856,141,1997,1,07/01/2018
53,267,Broadway & W 36 St,40.75097711,-73.98765428,3010,719,499,3526,702,4228,1,07/01/2018
54,268,Howard St & Centre St,40.71910537,-73.99973337,2767,1044,470,3650,631,4281,1,07/01/2018
55,270,Adelphi St & Myrtle Ave,40.69308257,-73.97178913,1127,552,67,1649,97,1746,1,07/01/2018
56,274,Lafayette Ave & Fort Greene Pl,40.68691865,-73.976682,1252,679,116,1883,164,2047,1,07/01/2018
57,275,Washington Ave & Greene Ave,40.68650065,-73.96563307,755,335,81,1080,91,1171,1,07/01/2018
58,276,Duane St & Greenwich St,40.71748752,-74.0104554,1509,578,167,1988,266,2254,1,07/01/2018
59,278,Concord St & Bridge St,40.69766564,-73.98476437,476,275,170,699,222,921,1,07/01/2018
60,279,Peck Slip & Front St,40.707873,-74.00166999999999,2183,953,710,2816,1030,3846,1,07/01/2018
61,280,E 10 St & 5 Ave,40.73331967,-73.99510132,1828,711,228,2466,301,2767,1,07/01/2018
62,281,Grand Army Plaza & Central Park S,40.764397100000004,-73.97371465,4031,1507,4938,4658,5818,10476,1,07/01/2018
63,282,Kent Ave & S 11 St,40.7076449441757,-73.96841526031494,1020,702,473,1589,606,2195,1,07/01/2018
64,285,Broadway & E 14 St,40.73454567,-73.99074142,6526,2182,664,8481,891,9372,1,07/01/2018
65,289,Monroe St & Classon Ave,40.684568299999995,-73.95881081,515,352,39,837,69,906,1,07/01/2018
66,291,Madison St & Montgomery St,40.713126,-73.984844,1307,341,140,1642,146,1788,1,07/01/2018
67,293,Lafayette St & E 8 St,40.73020660529954,-73.99102628231049,5535,1937,513,7355,630,7985,1,07/01/2018
68,295,Pike St & E Broadway,40.71406667,-73.99293911,1774,751,280,2511,294,2805,1,07/01/2018
69,296,Division St & Bowery,40.71413089,-73.99704679999999,2425,883,391,3189,510,3699,1,07/01/2018
70,297,E 15 St & 3 Ave,40.734232,-73.986923,3728,1417,263,5058,350,5408,1,07/01/2018
71,298,3 Ave & Schermerhorn St,40.68683208,-73.9796772,1047,489,137,1496,177,1673,1,07/01/2018
72,301,E 2 St & Avenue B,40.72217444,-73.98368779,2669,1146,305,3714,406,4120,1,07/01/2018
73,302,Avenue D & E 3 St,40.72082834,-73.97793172,1418,690,62,2062,108,2170,1,07/01/2018
74,303,Mercer St & Spring St,40.72362738,-73.99949601,2442,954,411,3217,590,3807,1,07/01/2018
75,304,Broadway & Battery Pl,40.70463334,-74.01361706,3394,1221,843,4187,1271,5458,1,07/01/2018
76,305,E 58 St & 3 Ave,40.76095756,-73.96724467,3325,786,306,3985,432,4417,1,07/01/2018
77,306,Cliff St & Fulton St_1,40.70823502,-74.00530063,2067,634,205,2579,327,2906,1,07/01/2018
78,307,Canal St & Rutgers St,40.71427487,-73.98990025,3995,1597,456,5632,416,6048,1,07/01/2018
79,308,St James Pl & Oliver St,40.71307916,-73.99851193,1551,532,319,1986,416,2402,1,07/01/2018
80,309,Murray St & West St,40.7149787,-74.013012,2184,863,578,2823,802,3625,1,07/01/2018
81,310,State St & Smith St,40.68926942,-73.98912867,1363,513,158,1820,214,2034,1,07/01/2018
82,311,Norfolk St & Broome St,40.7172274,-73.98802084,2312,854,310,3070,406,3476,1,07/01/2018
83,312,Allen St & Stanton St,40.722055,-73.989111,3460,1473,570,4744,759,5503,1,07/01/2018
84,313,Washington Ave & Park Ave,40.69610226,-73.96751037,918,387,172,1267,210,1477,1,07/01/2018
85,314,Cadman Plaza West & Montague St,40.69383,-73.990539,1380,559,133,1862,210,2072,1,07/01/2018
86,315,South St & Gouverneur Ln,40.70355377,-74.00670227,3474,1577,986,4675,1362,6037,1,07/01/2018
87,316,Fulton St & William St,40.70955958,-74.00653609,1882,524,222,2316,312,2628,1,07/01/2018
88,317,E 6 St & Avenue B,40.72453734,-73.98185424,2377,1215,153,3514,231,3745,1,07/01/2018
89,319,Fulton St & Broadway,40.711065999999995,-74.009447,3218,795,697,3650,1060,4710,1,07/01/2018
90,320,Leonard St & Church St,40.717571,-74.005549,1664,565,170,2133,266,2399,1,07/01/2018
91,321,Cadman Plaza E & Red Cross Pl,40.69991755,-73.98971773,1312,613,943,1608,1260,2868,1,07/01/2018
92,322,Clinton St & Tillary St,40.696191999999996,-73.991218,885,338,392,1103,512,1615,1,07/01/2018
93,323,Lawrence St & Willoughby St,40.69236178,-73.98631746,256,103,36,349,46,395,1,07/01/2018
94,324,DeKalb Ave & Hudson Ave,40.689888,-73.981013,1576,510,197,2052,231,2283,1,07/01/2018
95,325,E 19 St & 3 Ave,40.73624527,-73.98473765,2422,742,128,3117,175,3292,1,07/01/2018
96,326,E 11 St & 1 Ave,40.72953837,-73.98426726,3253,1189,382,4318,506,4824,1,07/01/2018
97,327,Vesey Pl & River Terrace,40.715337899999994,-74.01658354,5127,1647,1131,6287,1618,7905,1,07/01/2018
98,328,Watts St & Greenwich St,40.72405549,-74.00965965,2796,909,282,3471,516,3987,1,07/01/2018
99,330,Reade St & Broadway,40.71450451,-74.00562789,1842,547,326,2335,380,2715,1,07/01/2018
100,331,Pike St & Monroe St,40.71173107,-73.99193043,1153,536,239,1689,239,1928,1,07/01/2018
101,332,Cherry St,40.71219906,-73.97948148,1155,546,292,1602,391,1993,1,07/01/2018
102,334,W 20 St & 7 Ave,40.74238787,-73.99726235,3897,1055,266,4864,354,5218,1,07/01/2018
103,335,Washington Pl & Broadway,40.72903917,-73.99404649,2376,799,348,3126,397,3523,1,07/01/2018
104,336,Sullivan St & Washington Sq,40.73047747,-73.99906065,3667,1339,568,4714,860,5574,1,07/01/2018
105,337,Old Slip & Front St,40.703799200000006,-74.00838676,1594,426,175,1926,269,2195,1,07/01/2018
106,339,Avenue D & E 12 St,40.72580614,-73.97422494,943,532,115,1455,135,1590,1,07/01/2018
107,340,Madison St & Clinton St,40.71269042,-73.98776323,1225,632,234,1934,157,2091,1,07/01/2018
108,341,Stanton St & Mangin St,40.71782143,-73.97628939,1148,506,138,1548,244,1792,1,07/01/2018
109,342,Columbia St & Rivington St,40.71739973,-73.98016555,1184,668,73,1821,104,1925,1,07/01/2018
110,343,Clinton Ave & Flushing Ave,40.69794,-73.96986848,448,203,236,591,296,887,1,07/01/2018
111,344,Monroe St & Bedford Ave,40.6851443,-73.95380904,603,539,102,1123,121,1244,1,07/01/2018
112,345,W 13 St & 6 Ave,40.73649403,-73.99704374,3171,1160,247,4239,339,4578,1,07/01/2018
113,346,Bank St & Hudson St,40.73652889,-74.00618026,2356,1029,307,3224,468,3692,1,07/01/2018
114,347,Greenwich St & W Houston St,40.728846000000004,-74.00859100000001,4022,1318,507,5097,750,5847,1,07/01/2018
115,349,Rivington St & Ridge St,40.71850211,-73.98329859,1650,617,169,2184,252,2436,1,07/01/2018
116,350,Clinton St & Grand St,40.71559509,-73.9870295,2026,923,203,2857,295,3152,1,07/01/2018
117,351,Front St & Maiden Ln,40.70530954,-74.00612572,2143,670,443,2615,641,3256,1,07/01/2018
118,353,S Portland Ave & Hanson Pl,40.68539567,-73.97431458,767,408,97,1150,122,1272,1,07/01/2018
119,354,Emerson Pl & Myrtle Ave,40.69363137,-73.96223558,1023,508,128,1507,152,1659,1,07/01/2018
120,355,Bayard St & Baxter St,40.71602118,-73.99974372,2337,907,392,3096,540,3636,1,07/01/2018
121,356,Bialystoker Pl & Delancey St,40.71622644,-73.98261206,1177,713,146,1859,177,2036,1,07/01/2018
122,357,E 11 St & Broadway,40.73261787,-73.99158043,1486,541,157,1968,216,2184,1,07/01/2018
123,358,Christopher St & Greenwich St,40.73291553,-74.00711384,6104,2064,746,7869,1045,8914,1,07/01/2018
124,359,E 47 St & Park Ave,40.75510267,-73.97498696,6273,798,309,7001,379,7380,1,07/01/2018
125,360,William St & Pine St,40.70717936,-74.00887308,1637,488,225,2009,341,2350,1,07/01/2018
126,361,Allen St & Hester St,40.71605866,-73.99190759,3175,1288,316,4378,401,4779,1,07/01/2018
127,362,Broadway & W 37 St,40.75172632,-73.98753523,1414,280,256,1641,309,1950,1,07/01/2018
128,363,West Thames St,40.70834698,-74.01713445,2788,1256,579,3846,777,4623,1,07/01/2018
129,364,Lafayette Ave & Classon Ave,40.68900443,-73.96023854,1125,620,106,1699,152,1851,1,07/01/2018
130,365,Fulton St & Grand Ave,40.68223166,-73.9614583,692,449,89,1117,113,1230,1,07/01/2018
131,366,Clinton Ave & Myrtle Ave,40.693261,-73.968896,1444,753,92,2150,139,2289,1,07/01/2018
132,368,Carmine St & 6 Ave,40.73038599,-74.00214988,6490,2076,649,8208,1007,9215,1,07/01/2018
133,369,Washington Pl & 6 Ave,40.73224119,-74.00026394,2191,791,311,2865,428,3293,1,07/01/2018
134,372,Franklin Ave & Myrtle Ave,40.694546087246025,-73.95801365375519,535,185,82,674,128,802,1,07/01/2018
135,373,Willoughby Ave & Walworth St,40.69331716,-73.95381995,371,129,62,483,79,562,1,07/01/2018
136,376,John St & William St,40.70862144,-74.00722156,1773,553,170,2261,235,2496,1,07/01/2018
137,377,6 Ave & Canal St,40.72243797,-74.00566443,3432,917,459,4129,679,4808,1,07/01/2018
138,379,W 31 St & 7 Ave,40.749156,-73.9916,5540,1189,367,6592,504,7096,1,07/01/2018
139,380,W 4 St & 7 Ave S,40.73401143,-74.00293877,3933,1312,621,5012,854,5866,1,07/01/2018
140,382,University Pl & E 14 St,40.73492695,-73.99200509,5333,1929,511,7142,631,7773,1,07/01/2018
141,383,Greenwich Ave & Charles St,40.735238,-74.000271,3241,1215,325,4320,461,4781,1,07/01/2018
142,386,Centre St & Worth St,40.71494807,-74.00234482,1621,567,459,2055,592,2647,1,07/01/2018
143,387,Centre St & Chambers St,40.71273266,-74.0046073,3774,1576,2916,4195,4071,8266,1,07/01/2018
144,388,W 26 St & 10 Ave,40.749717753,-74.002950346,2594,1047,350,3492,499,3991,1,07/01/2018
145,389,Broadway & Berry St,40.71044554,-73.96525063,1467,810,288,2179,386,2565,1,07/01/2018
146,390,Duffield St & Willoughby St,40.69221589,-73.9842844,2053,574,210,2563,274,2837,1,07/01/2018
147,391,Clark St & Henry St,40.69760127,-73.99344559,1938,799,273,2715,295,3010,1,07/01/2018
148,392,Jay St & Tech Pl,40.695065,-73.987167,1362,577,595,1858,676,2534,1,07/01/2018
149,393,E 5 St & Avenue C,40.72299208,-73.97995466,1466,677,58,2083,118,2201,1,07/01/2018
150,394,E 9 St & Avenue C,40.72521311,-73.97768752,2664,1109,219,3714,278,3992,1,07/01/2018
151,396,Lefferts Pl & Franklin Ave,40.680342423,-73.9557689392,644,263,102,919,90,1009,1,07/01/2018
152,397,Fulton St & Clermont Ave,40.68415748,-73.96922273,526,271,80,811,66,877,1,07/01/2018
153,398,Atlantic Ave & Furman St,40.69165183,-73.99997859999999,1627,915,717,2317,942,3259,1,07/01/2018
154,399,Lafayette Ave & St James Pl,40.68851534,-73.9647628,938,540,95,1464,109,1573,1,07/01/2018
155,400,Pitt St & Stanton St,40.71926081,-73.98178024,735,300,71,1024,82,1106,1,07/01/2018
156,401,Allen St & Rivington St,40.72019576,-73.98997825,3334,1273,461,4448,620,5068,1,07/01/2018
157,402,Broadway & E 22 St,40.740343200000005,-73.98955109,6770,2163,643,8713,863,9576,1,07/01/2018
158,403,E 2 St & 2 Ave,40.72502876,-73.99069656,4503,1966,506,6282,693,6975,1,07/01/2018
159,405,Washington St & Gansevoort St,40.739323,-74.008119,4049,1621,1304,5004,1970,6974,1,07/01/2018
160,406,Hicks St & Montague St,40.69512845,-73.99595065,1476,649,188,2049,264,2313,1,07/01/2018
161,407,Henry St & Poplar St,40.700469,-73.991454,833,244,217,977,317,1294,1,07/01/2018
162,408,Market St & Cherry St,40.71076228,-73.99400398,1315,446,253,1734,280,2014,1,07/01/2018
163,409,DeKalb Ave & Skillman St,40.6906495,-73.95643107,588,305,142,872,163,1035,1,07/01/2018
164,410,Suffolk St & Stanton St,40.72066442,-73.98517977,3189,1317,394,4367,533,4900,1,07/01/2018
165,411,E 6 St & Avenue D,40.72228087,-73.97668709,1272,671,107,1907,143,2050,1,07/01/2018
166,412,Forsyth St & Canal St,40.715815500000005,-73.99422366,2847,1251,594,3943,749,4692,1,07/01/2018
167,414,Pearl St & Anchorage Pl,40.70281858,-73.98765762,1354,447,301,1620,482,2102,1,07/01/2018
168,415,Pearl St & Hanover Square,40.7047177,-74.00926027,1878,660,234,2427,345,2772,1,07/01/2018
169,416,Cumberland St & Lafayette Ave,40.68753406,-73.97265183,936,546,77,1458,101,1559,1,07/01/2018
170,417,Barclay St & Church St,40.71291224,-74.01020234,3658,867,460,4334,651,4985,1,07/01/2018
171,418,Front St & Gold St,40.70224,-73.982578,870,421,181,1287,185,1472,1,07/01/2018
172,419,Carlton Ave & Park Ave,40.69580705,-73.97355569,474,228,33,680,55,735,1,07/01/2018
173,420,Clermont Ave & Lafayette Ave,40.68764484,-73.96968902,774,358,92,1136,88,1224,1,07/01/2018
174,421,Clermont Ave & Park Ave,40.69573398,-73.97129668,443,205,56,650,54,704,1,07/01/2018
175,422,W 59 St & 10 Ave,40.770513,-73.988038,2525,801,204,3207,323,3530,1,07/01/2018
176,423,W 54 St & 9 Ave,40.76584941,-73.98690506,2791,665,335,3326,465,3791,1,07/01/2018
177,426,West St & Chambers St,40.71754834,-74.01322069,6980,3327,2063,9394,2976,12370,1,07/01/2018
178,427,Bus Slip & State St,40.701907,-74.013942,1568,665,925,1825,1333,3158,1,07/01/2018
179,432,E 7 St & Avenue A,40.72621788,-73.98379855,4343,1695,357,5920,475,6395,1,07/01/2018
180,433,E 13 St & Avenue A,40.72955361,-73.98057249,4091,1561,260,5553,359,5912,1,07/01/2018
181,435,W 21 St & 6 Ave,40.74173969,-73.99415556,7298,2659,478,9810,625,10435,1,07/01/2018
182,436,Hancock St & Bedford Ave,40.68216564,-73.95399026,421,215,138,665,109,774,1,07/01/2018
183,437,Macon St & Nostrand Ave,40.6809833854,-73.9500479759,1098,420,118,1513,123,1636,1,07/01/2018
184,438,St Marks Pl & 1 Ave,40.72779126,-73.98564945,3613,1507,397,4940,577,5517,1,07/01/2018
185,439,E 4 St & 2 Ave,40.726280700000004,-73.98978041,1,0,0,1,0,1,1,07/01/2018
186,440,E 45 St & 3 Ave,40.75255434,-73.97282625,2387,506,189,2784,298,3082,1,07/01/2018
187,441,E 52 St & 2 Ave,40.756014,-73.967416,2410,646,276,2975,357,3332,1,07/01/2018
188,442,W 27 St & 7 Ave,40.746646999999996,-73.993915,4340,1153,315,5347,461,5808,1,07/01/2018
189,443,Bedford Ave & S 9 St,40.70853074,-73.96408963,401,182,68,552,99,651,1,07/01/2018
190,445,E 10 St & Avenue A,40.72740794,-73.98142006,4288,1585,401,5678,596,6274,1,07/01/2018
191,446,W 24 St & 7 Ave,40.74487634,-73.99529885,4846,1573,353,6289,483,6772,1,07/01/2018
192,447,8 Ave & W 52 St,40.76370739,-73.9851615,3679,915,496,4355,735,5090,1,07/01/2018
193,448,W 37 St & 10 Ave,40.75660359,-73.9979009,3463,983,238,4244,440,4684,1,07/01/2018
194,450,W 49 St & 8 Ave,40.76227205,-73.98788205,4931,969,416,5707,609,6316,1,07/01/2018
195,453,W 22 St & 8 Ave,40.74475148,-73.99915362,4411,1469,389,5730,539,6269,1,07/01/2018
196,454,E 51 St & 1 Ave,40.75455731,-73.96592976,1594,510,164,2036,232,2268,1,07/01/2018
197,455,1 Ave & E 44 St,40.75001986,-73.96905301,2196,822,444,2979,483,3462,1,07/01/2018
198,456,E 53 St & Madison Ave,40.75971079999999,-73.97402311,3734,718,265,4393,324,4717,1,07/01/2018
199,457,Broadway & W 58 St,40.76695317,-73.98169333,4983,1826,1273,6173,1909,8082,1,07/01/2018
200,458,11 Ave & W 27 St,40.751396,-74.00522600000001,4504,1700,706,5909,1001,6910,1,07/01/2018
201,459,W 20 St & 11 Ave,40.746745000000004,-74.007756,5982,2238,1270,7647,1843,9490,1,07/01/2018
202,460,S 4 St & Wythe Ave,40.71285887,-73.96590294,2684,1468,550,3859,843,4702,1,07/01/2018
203,461,E 20 St & 2 Ave,40.73587678,-73.98205027,3186,1303,291,4367,413,4780,1,07/01/2018
204,462,W 22 St & 10 Ave,40.74691959,-74.00451887,4238,1551,568,5609,748,6357,1,07/01/2018
205,465,Broadway & W 41 St,40.75513557,-73.98658032,5340,1029,489,6109,749,6858,1,07/01/2018
206,466,W 25 St & 6 Ave,40.74395411,-73.99144871,4279,1144,377,5332,468,5800,1,07/01/2018
207,467,Dean St & 4 Ave,40.68312489,-73.97895137,1685,674,170,2379,150,2529,1,07/01/2018
208,468,Broadway & W 56 St,40.7652654,-73.98192338,3400,1004,422,4217,609,4826,1,07/01/2018
209,469,Broadway & W 53 St,40.76344058,-73.98268129,3406,741,400,4028,519,4547,1,07/01/2018
210,470,W 20 St & 8 Ave,40.74345335,-74.00004031,2590,866,299,3390,365,3755,1,07/01/2018
211,471,Grand St & Havemeyer St,40.71286844,-73.95698119,1267,709,178,1889,265,2154,1,07/01/2018
212,472,E 32 St & Park Ave,40.745712100000006,-73.98194829,4411,1117,331,5483,376,5859,1,07/01/2018
213,473,Rivington St & Chrystie St,40.72110063,-73.99192540000001,1842,761,341,2489,455,2944,1,07/01/2018
214,474,5 Ave & E 29 St,40.7451677,-73.98683077,3700,1030,514,4547,697,5244,1,07/01/2018
215,476,E 31 St & 3 Ave,40.74394314,-73.97966069,3156,1048,291,4165,330,4495,1,07/01/2018
216,477,W 41 St & 8 Ave,40.75640548,-73.9900262,6795,1368,495,7944,714,8658,1,07/01/2018
217,478,11 Ave & W 41 St,40.76030096,-73.99884222,3640,1036,464,4392,748,5140,1,07/01/2018
218,479,9 Ave & W 45 St,40.76019252,-73.9912551,4550,1044,631,5371,854,6225,1,07/01/2018
219,480,W 53 St & 10 Ave,40.76669671,-73.99061728,2905,795,316,3579,437,4016,1,07/01/2018
220,481,S 3 St & Bedford Ave,40.71260486,-73.96264403,1471,785,242,2215,283,2498,1,07/01/2018
221,482,W 15 St & 7 Ave,40.73935542,-73.99931783,4305,1234,385,5517,407,5924,1,07/01/2018
222,483,E 12 St & 3 Ave,40.73223272,-73.98889957,3985,1351,244,5184,396,5580,1,07/01/2018
223,484,W 44 St & 5 Ave,40.75500254,-73.98014437,2221,389,347,2499,458,2957,1,07/01/2018
224,485,W 37 St & 5 Ave,40.75038009,-73.98338988,2443,584,320,2904,443,3347,1,07/01/2018
225,486,Broadway & W 29 St,40.7462009,-73.98855723,3791,1064,514,4621,748,5369,1,07/01/2018
226,487,E 20 St & FDR Drive,40.73314259,-73.97573881,3779,1429,285,5088,405,5493,1,07/01/2018
227,490,8 Ave & W 33 St,40.751551,-73.993934,6389,1356,544,7457,832,8289,1,07/01/2018
228,491,E 24 St & Park Ave S,40.74096374,-73.98602213,4648,1086,362,5738,358,6096,1,07/01/2018
229,492,W 33 St & 7 Ave,40.75019995,-73.99093085,5997,1210,632,6964,875,7839,1,07/01/2018
230,494,W 26 St & 8 Ave,40.74734825,-73.99723551,4377,1239,378,5475,519,5994,1,07/01/2018
231,495,W 47 St & 10 Ave,40.76269882,-73.99301222,3388,793,290,4063,408,4471,1,07/01/2018
232,496,E 16 St & 5 Ave,40.73726186,-73.99238967,3829,1437,324,5155,435,5590,1,07/01/2018
233,497,E 17 St & Broadway,40.73704984,-73.99009296,7658,2610,706,10012,962,10974,1,07/01/2018
234,498,Broadway & W 32 St,40.74854862,-73.98808416,4339,1226,453,5388,630,6018,1,07/01/2018
235,499,Broadway & W 60 St,40.76915505,-73.98191841,5818,2231,1659,7335,2373,9708,1,07/01/2018
236,500,Broadway & W 51 St,40.76228826,-73.98336183,2855,576,417,3265,583,3848,1,07/01/2018
237,501,FDR Drive & E 35 St,40.744219,-73.97121214,3214,1128,737,4078,1001,5079,1,07/01/2018
238,502,Henry St & Grand St,40.714215,-73.981346,2063,1076,176,3109,206,3315,1,07/01/2018
239,503,E 20 St & Park Ave,40.73827428,-73.98751968,3516,1140,220,4546,330,4876,1,07/01/2018
240,504,1 Ave & E 16 St,40.73221853,-73.98165557,4563,1838,165,6303,263,6566,1,07/01/2018
241,505,6 Ave & W 33 St,40.74901271,-73.98848395,5962,1519,802,7246,1037,8283,1,07/01/2018
242,507,E 25 St & 2 Ave,40.73912601,-73.97973776,3462,1235,313,4648,362,5010,1,07/01/2018
243,508,W 46 St & 11 Ave,40.76341379,-73.99667444,2929,923,568,3650,770,4420,1,07/01/2018
244,509,9 Ave & W 22 St,40.7454973,-74.00197139,4646,1452,453,5922,629,6551,1,07/01/2018
245,513,W 56 St & 10 Ave,40.768254,-73.988639,2316,577,205,2807,291,3098,1,07/01/2018
246,514,12 Ave & W 40 St,40.76087502,-74.00277668,5899,2720,2630,7446,3803,11249,1,07/01/2018
247,515,W 43 St & 10 Ave,40.76009437,-73.99461843,3565,987,316,4366,502,4868,1,07/01/2018
248,516,E 47 St & 1 Ave,40.75206862,-73.96784384,1413,544,187,1872,272,2144,1,07/01/2018
249,517,Pershing Square South,40.751581,-73.97791,3594,614,262,4112,358,4470,1,07/01/2018
250,518,E 39 St & 2 Ave,40.74780373,-73.97344190000001,3935,1144,366,4880,565,5445,1,07/01/2018
251,519,Pershing Square North,40.751872999999996,-73.97770600000001,11999,1972,917,13628,1260,14888,1,07/01/2018
252,520,W 52 St & 5 Ave,40.75992262,-73.97648516,2634,541,435,2972,638,3610,1,07/01/2018
253,523,W 38 St & 8 Ave,40.75466591,-73.99138152,4874,1207,506,5948,639,6587,1,07/01/2018
254,524,W 43 St & 6 Ave,40.75527307,-73.98316936,3456,754,418,4001,627,4628,1,07/01/2018
255,525,W 34 St & 11 Ave,40.75594159,-74.0021163,2571,877,807,3084,1171,4255,1,07/01/2018
256,526,E 33 St & 5 Ave,40.74765947,-73.98490707,2768,634,430,3209,623,3832,1,07/01/2018
257,528,2 Ave & E 31 St,40.74290902,-73.97706058,3793,1337,326,4971,485,5456,1,07/01/2018
258,529,W 42 St & 8 Ave,40.75756989999999,-73.99098507,3656,692,463,4121,690,4811,1,07/01/2018
259,530,11 Ave & W 59 St,40.771522,-73.99054100000001,3087,1142,380,3995,614,4609,1,07/01/2018
260,531,Forsyth St & Broome St,40.71893904,-73.99266288,3372,1408,333,4599,514,5113,1,07/01/2018
261,532,S 5 Pl & S 5 St,40.710451,-73.960876,2406,1077,1138,3119,1502,4621,1,07/01/2018
262,533,Broadway & W 38 St,40.75299641,-73.98721619,3370,733,384,3967,520,4487,1,07/01/2018
263,534,Water - Whitehall Plaza,40.70255065,-74.0127234,1486,451,376,1794,519,2313,1,07/01/2018
264,536,1 Ave & E 30 St,40.74144387,-73.97536082,2930,1034,298,3955,307,4262,1,07/01/2018
265,537,Lexington Ave & E 24 St,40.74025878,-73.98409214,4445,1214,282,5511,430,5941,1,07/01/2018
266,539,Metropolitan Ave & Bedford Ave,40.71534825,-73.96024116,3041,1358,459,4201,657,4858,1,07/01/2018
267,540,Lexington Ave & E 29 St,40.74311555376486,-73.98215353488922,3504,1046,264,4479,335,4814,1,07/01/2018
268,545,E 23 St & 1 Ave,40.736502,-73.97809472,4095,1320,300,5322,393,5715,1,07/01/2018
269,546,E 30 St & Park Ave S,40.74444921,-73.98303529,2739,825,298,3501,361,3862,1,07/01/2018
270,2000,Front St & Washington St,40.70255088,-73.98940236,2284,984,624,2922,970,3892,1,07/01/2018
271,2002,Wythe Ave & Metropolitan Ave,40.716887,-73.96319799999999,2338,1259,456,3383,670,4053,1,07/01/2018
272,2003,1 Ave & E 18 St,40.73381219196632,-73.9805442094803,3578,1308,317,4790,413,5203,1,07/01/2018
273,2005,Railroad Ave & Kay Ave,40.70531194,-73.97100056,118,34,7,151,8,159,1,07/01/2018
274,2006,Central Park S & 6 Ave,40.76590936,-73.97634151,4022,1898,3575,4217,5278,9495,1,07/01/2018
275,2008,Little West St & 1 Pl,40.70569254,-74.01677685,3682,1670,1393,4738,2007,6745,1,07/01/2018
276,2009,Catherine St & Monroe St,40.71117444,-73.99682619,1656,752,147,2363,192,2555,1,07/01/2018
277,2010,Grand St & Greene St,40.72165481,-74.00234737,2352,870,352,3068,506,3574,1,07/01/2018
278,2012,E 27 St & 1 Ave,40.739445,-73.97680600000001,2282,916,278,3235,241,3476,1,07/01/2018
279,2021,W 45 St & 8 Ave,40.75929124,-73.98859651,3309,863,606,3813,965,4778,1,07/01/2018
280,2022,E 60 St & York Ave,40.759107,-73.959223,829,284,154,1025,242,1267,1,07/01/2018
281,2023,E 55 St & Lexington Ave,40.75968085,-73.97031366,1554,340,203,1852,245,2097,1,07/01/2018
282,3002,South End Ave & Liberty St,40.711512,-74.01575600000001,5575,2299,1671,7163,2382,9545,1,07/01/2018
283,3016,Kent Ave & N 7 St,40.72036775298455,-73.96165072917937,2965,1540,920,4133,1292,5425,1,07/01/2018
284,3036,8D OPS 01,40.66290776831685,-73.99972200393677,1,0,1,1,1,2,1,07/01/2018
285,3041,Kingston Ave & Herkimer St,40.67890679,-73.94142771,409,184,80,560,113,673,1,07/01/2018
286,3042,Fulton St & Utica Ave,40.6794268,-73.92989109999999,431,208,108,606,141,747,1,07/01/2018
287,3043,Lewis Ave & Decatur St,40.6814598,-73.934903,207,146,55,319,89,408,1,07/01/2018
288,3044,Albany Ave & Fulton St,40.6800105,-73.938475,151,77,20,220,28,248,1,07/01/2018
289,3046,Marcus Garvey Blvd & Macon St,40.682601,-73.938037,322,230,48,537,63,600,1,07/01/2018
290,3047,Halsey St & Tompkins Ave,40.682368700000005,-73.944118,480,251,76,716,91,807,1,07/01/2018
291,3048,Putnam Ave & Nostrand Ave,40.684020000000004,-73.94977,282,218,22,499,23,522,1,07/01/2018
292,3049,Cambridge Pl & Gates Ave,40.68488,-73.96304,542,250,61,812,41,853,1,07/01/2018
293,3050,Putnam Ave & Throop Ave,40.6851532,-73.94111,405,202,49,581,75,656,1,07/01/2018
294,3052,Lewis Ave & Madison St,40.686312,-73.935775,466,284,91,702,139,841,1,07/01/2018
295,3053,Marcy Ave & Lafayette Ave,40.6900815,-73.94791500000001,365,144,80,493,96,589,1,07/01/2018
296,3054,Greene Ave & Throop Ave,40.6894932,-73.942061,366,153,62,492,89,581,1,07/01/2018
297,3055,Greene Ave & Nostrand Ave,40.68833370000001,-73.950916,446,212,55,621,92,713,1,07/01/2018
298,3056,Kosciuszko St & Nostrand Ave,40.69072549,-73.95133465,394,187,45,559,67,626,1,07/01/2018
299,3057,Kosciuszko St & Tompkins Ave,40.69128258,-73.9452416,459,204,51,652,62,714,1,07/01/2018
300,3058,Lewis Ave & Kosciuszko St,40.69237074,-73.93705428,382,221,59,546,116,662,1,07/01/2018
301,3059,Pulaski St & Marcus Garvey Blvd,40.693398200000004,-73.939877,228,107,36,329,42,371,1,07/01/2018
302,3060,Willoughby Ave & Tompkins Ave,40.69425403,-73.94626915,342,180,30,496,56,552,1,07/01/2018
303,3061,Throop Ave & Myrtle Ave,40.69622937,-73.94371094,242,104,29,315,60,375,1,07/01/2018
304,3062,Myrtle Ave & Marcy Ave,40.69539817,-73.94954908,443,132,57,568,64,632,1,07/01/2018
305,3063,Nostrand Ave & Myrtle Ave,40.69527008,-73.95238108,338,104,55,424,73,497,1,07/01/2018
306,3064,Myrtle Ave & Lewis Ave,40.69681963,-73.93756926,1157,386,214,1442,315,1757,1,07/01/2018
307,3065,Union Ave & Wallabout St,40.70029511,-73.95032283,287,137,81,421,84,505,1,07/01/2018
308,3066,Tompkins Ave & Hopkins St,40.69957608,-73.94708417,343,168,48,475,84,559,1,07/01/2018
309,3067,Broadway & Whipple St,40.7016657,-73.9437303,545,174,71,689,101,790,1,07/01/2018
310,3068,Humboldt St & Varet St,40.7031724,-73.940636,550,276,238,800,264,1064,1,07/01/2018
311,3069,Lorimer St & Broadway,40.70411791,-73.94818595,258,113,61,355,77,432,1,07/01/2018
312,3070,McKibbin St & Manhattan Ave,40.70510918,-73.94407279,489,188,46,650,73,723,1,07/01/2018
313,3071,Boerum St & Broadway,40.70538077,-73.94976519,407,172,90,533,136,669,1,07/01/2018
314,3072,Leonard St & Boerum St,40.70583339,-73.94644578,397,129,73,516,83,599,1,07/01/2018
315,3073,Division Ave & Hooper St,40.70691254,-73.95441667,355,158,54,464,103,567,1,07/01/2018
316,3075,Division Ave & Marcy Ave,40.70708701,-73.95796783,219,132,58,334,75,409,1,07/01/2018
317,3076,Scholes St & Manhattan Ave,40.70870368,-73.9448625,975,527,123,1441,184,1625,1,07/01/2018
318,3077,Stagg St & Union Ave,40.70877084,-73.95095259,950,574,16,1451,89,1540,1,07/01/2018
319,3078,Broadway & Roebling St,40.70924826276157,-73.96063148975372,1156,503,169,1595,233,1828,1,07/01/2018
320,3080,S 4 St & Rodney St,40.709340000000005,-73.95608,709,349,82,1012,128,1140,1,07/01/2018
321,3081,Graham Ave & Grand St,40.711863,-73.944024,810,382,98,1144,146,1290,1,07/01/2018
322,3082,Hope St & Union Ave,40.71167351,-73.95141312,1209,586,178,1732,241,1973,1,07/01/2018
323,3083,Bushwick Ave & Powers St,40.71247661,-73.94100005,962,445,157,1334,230,1564,1,07/01/2018
324,3085,Roebling St & N 4 St,40.714690000000004,-73.95739,1154,639,184,1708,269,1977,1,07/01/2018
325,3086,Graham Ave & Conselyea St,40.715143,-73.944507,1592,819,119,2355,175,2530,1,07/01/2018
326,3087,Metropolitan Ave & Meeker Ave,40.71413311,-73.95234386,1482,477,181,1926,214,2140,1,07/01/2018
327,3088,Union Ave & Jackson St,40.7160751,-73.95202900000001,541,206,75,704,118,822,1,07/01/2018
328,3090,N 8 St & Driggs Ave,40.71774592,-73.95600096,2289,1054,229,3295,277,3572,1,07/01/2018
329,3091,Frost St & Meeker St,40.71764,-73.94882,407,139,66,528,84,612,1,07/01/2018
330,3092,Berry St & N 8 St,40.7190095,-73.95852515,1732,928,231,2563,328,2891,1,07/01/2018
331,3093,N 6 St & Bedford Ave,40.71745169,-73.95850939,2594,1201,321,3657,459,4116,1,07/01/2018
332,3094,Graham Ave & Withers St,40.7169811,-73.94485918,672,322,77,960,111,1071,1,07/01/2018
333,3095,Graham Ave & Herbert St,40.71929301,-73.94500379,482,214,31,687,40,727,1,07/01/2018
334,3096,Union Ave & N 12 St,40.71924,-73.95241999999999,1266,657,181,1866,238,2104,1,07/01/2018
335,3100,Nassau Ave & Newell St,40.724812564400175,-73.94752621650694,831,519,82,1327,105,1432,1,07/01/2018
336,3101,N 12 St & Bedford Ave,40.72079821,-73.95484712,1298,589,279,1760,406,2166,1,07/01/2018
337,3102,Driggs Ave & Lorimer St,40.72179134,-73.95041540000001,836,463,138,1290,147,1437,1,07/01/2018
338,3105,N 15 St & Wythe Ave,40.724055,-73.955736,663,306,88,939,118,1057,1,07/01/2018
339,3106,Driggs Ave & N Henry St,40.72325,-73.94308000000001,886,454,92,1365,67,1432,1,07/01/2018
340,3107,Bedford Ave & Nassau Ave,40.72311651,-73.95212324,1895,937,296,2744,384,3128,1,07/01/2018
341,3108,Nassau Ave & Russell St,40.725570000000005,-73.94434,1140,637,144,1779,142,1921,1,07/01/2018
342,3109,Banker St & Meserole Ave,40.72606,-73.95621,1046,514,132,1469,223,1692,1,07/01/2018
343,3110,Meserole Ave & Manhattan Ave,40.72708584,-73.95299117,1471,678,173,2118,204,2322,1,07/01/2018
344,3112,Milton St & Franklin St,40.72906,-73.95779,2084,1095,371,3072,478,3550,1,07/01/2018
345,3113,Greenpoint Ave & Manhattan Ave,40.730259999999994,-73.95394,1436,538,166,1974,166,2140,1,07/01/2018
346,3115,India St & Manhattan Ave,40.73232194,-73.9550858,1069,495,120,1503,181,1684,1,07/01/2018
347,3116,Huron St & Franklin St,40.732659999999996,-73.95826,1100,663,159,1674,248,1922,1,07/01/2018
348,3117,Franklin St & Dupont St,40.735640000000004,-73.95866,988,408,111,1349,158,1507,1,07/01/2018
349,3118,McGuinness Blvd & Eagle St,40.73555,-73.95284000000001,1093,486,168,1505,242,1747,1,07/01/2018
350,3119,Vernon Blvd & 50 Ave,40.74232744,-73.95411749,1916,585,203,2455,249,2704,1,07/01/2018
351,3120,Center Blvd & Borden Ave,40.741609999999994,-73.96044,538,218,180,686,250,936,1,07/01/2018
352,3121,Jackson Ave & 46 Rd,40.74524768,-73.94733276,430,160,97,558,129,687,1,07/01/2018
353,3122,48 Ave & 5 St,40.74436328706688,-73.95587325096129,393,104,59,467,89,556,1,07/01/2018
354,3123,31 St & Thomson Ave,40.74469738,-73.93540375,321,108,51,415,65,480,1,07/01/2018
355,3124,46 Ave & 5 St,40.74731,-73.95451,1197,403,179,1542,237,1779,1,07/01/2018
356,3125,45 Rd & 11 St,40.74708586,-73.94977234,814,269,74,1045,112,1157,1,07/01/2018
357,3126,44 Dr & Jackson Ave,40.74718234,-73.9432635,1184,502,149,1623,212,1835,1,07/01/2018
358,3127,9 St & 44 Rd,40.74966,-73.9521,283,161,137,406,175,581,1,07/01/2018
359,3128,21 St & 43 Ave,40.75052534,-73.94594845,226,38,33,242,55,297,1,07/01/2018
360,3129,Queens Plaza North & Crescent St,40.75110165,-73.94073717,1920,741,504,2512,653,3165,1,07/01/2018
361,3130,21 St & Queens Plaza North,40.75325964,-73.94335788,555,191,78,709,115,824,1,07/01/2018
362,3131,E 68 St & 3 Ave,40.76712840349542,-73.96224617958069,1066,253,83,1296,106,1402,1,07/01/2018
363,3132,E 59 St & Madison Ave,40.76350532,-73.97109243,1567,480,278,1963,362,2325,1,07/01/2018
364,3134,3 Ave & E 62 St,40.76312584,-73.96526895,1324,351,156,1624,207,1831,1,07/01/2018
365,3135,E 75 St & 3 Ave,40.77112927,-73.95772297,889,308,108,1176,129,1305,1,07/01/2018
366,3136,5 Ave & E 63 St,40.766368,-73.971518,1071,571,1340,1140,1842,2982,1,07/01/2018
367,3137,5 Ave & E 73 St,40.77282817,-73.96685276,2478,1433,2899,2859,3951,6810,1,07/01/2018
368,3139,E 72 St & Park Ave,40.77118287540658,-73.96409422159195,792,272,240,990,314,1304,1,07/01/2018
369,3140,1 Ave & E 78 St,40.77140426,-73.9535166,2749,1057,241,3743,304,4047,1,07/01/2018
370,3141,1 Ave & E 68 St,40.76500525,-73.95818491,4272,1488,323,5689,394,6083,1,07/01/2018
371,3142,1 Ave & E 62 St,40.761227399999996,-73.96094022,3021,1066,408,3955,540,4495,1,07/01/2018
372,3143,5 Ave & E 78 St,40.77632142182271,-73.96427392959596,1619,932,1724,1761,2514,4275,1,07/01/2018
373,3144,E 81 St & Park Ave,40.77677702,-73.95900970000001,387,148,89,516,108,624,1,07/01/2018
374,3145,E 84 St & Park Ave,40.77862688,-73.95772073,963,323,151,1230,207,1437,1,07/01/2018
375,3146,E 81 St & 3 Ave,40.77573034,-73.9567526,1359,391,134,1701,183,1884,1,07/01/2018
376,3147,E 85 St & 3 Ave,40.77801203,-73.95407149,3044,1055,303,3954,448,4402,1,07/01/2018
377,3148,E 84 St & 1 Ave,40.77565541,-73.95068615,1655,616,201,2243,229,2472,1,07/01/2018
378,3150,E 85 St & York Ave,40.77536905,-73.94803392,1218,328,91,1516,121,1637,1,07/01/2018
379,3151,E 81 St & York Ave,40.7728384,-73.94989233,633,191,41,813,52,865,1,07/01/2018
380,3152,3 Ave & E 71 St,40.76873687,-73.96119945,718,220,54,910,82,992,1,07/01/2018
381,3153,E 71 St & 2 Ave,40.76817546742245,-73.95910263061523,251,87,22,327,33,360,1,07/01/2018
382,3155,Lexington Ave & E 63 St,40.76440023,-73.96648977,1553,512,197,2014,248,2262,1,07/01/2018
383,3156,E 72 St & York Ave,40.76663814,-73.95348296,2411,724,204,3122,217,3339,1,07/01/2018
384,3157,East End Ave & E 86 St,40.77518615,-73.94446054,738,294,98,979,151,1130,1,07/01/2018
385,3158,W 63 St & Broadway,40.77163851,-73.98261428,3245,1055,534,4126,708,4834,1,07/01/2018
386,3159,W 67 St & Broadway,40.77492513,-73.98266566,3300,1116,293,4335,374,4709,1,07/01/2018
387,3160,Central Park West & W 76 St,40.77896784,-73.97374737,1633,938,1812,1927,2456,4383,1,07/01/2018
388,3161,W 76 St & Columbus Ave,40.7801839724239,-73.97728532552719,2228,880,335,2960,483,3443,1,07/01/2018
389,3162,W 78 St & Broadway,40.78339981,-73.98093133,1543,662,160,2096,269,2365,1,07/01/2018
390,3163,Central Park West & W 68 St,40.7734066,-73.97782542,3467,1533,1757,4441,2316,6757,1,07/01/2018
391,3164,Columbus Ave & W 72 St,40.7770575,-73.97898475,4517,1942,569,6306,722,7028,1,07/01/2018
392,3165,Central Park West & W 72 St,40.77579376683666,-73.97620573639871,3174,1495,2546,3945,3270,7215,1,07/01/2018
393,3166,Riverside Dr & W 72 St,40.780577990103346,-73.98562431335448,1714,946,586,2484,762,3246,1,07/01/2018
394,3167,Amsterdam Ave & W 73 St,40.779668090073116,-73.98093044757842,3909,1696,395,5520,480,6000,1,07/01/2018
395,3168,Central Park West & W 85 St,40.78472675,-73.96961715,2526,1158,1451,3113,2022,5135,1,07/01/2018
396,3169,Riverside Dr & W 82 St,40.78720869,-73.98128127,1365,535,333,1750,483,2233,1,07/01/2018
397,3170,W 84 St & Columbus Ave,40.78499979,-73.97283406,1926,823,221,2718,252,2970,1,07/01/2018
398,3171,Amsterdam Ave & W 82 St,40.78524672,-73.97667321,1823,1098,248,2845,324,3169,1,07/01/2018
399,3172,W 74 St & Columbus Ave,40.7785669,-73.97754961,1602,749,196,2261,286,2547,1,07/01/2018
400,3173,Riverside Blvd & W 67 St,40.777507027547976,-73.98888587951659,2156,915,586,2781,876,3657,1,07/01/2018
401,3175,W 70 St & Amsterdam Ave,40.77748046,-73.98288594,704,327,98,1004,125,1129,1,07/01/2018
402,3176,W 64 St & West End Ave,40.77452835,-73.98753759,1689,447,116,2052,200,2252,1,07/01/2018
403,3177,W 84 St & Broadway,40.7867947,-73.977112,1817,662,209,2436,252,2688,1,07/01/2018
404,3178,Riverside Dr & W 78 St,40.78414472,-73.98362492,1187,583,522,1554,738,2292,1,07/01/2018
405,3179,Park Ave & Marcus Garvey Blvd,40.698617,-73.941342,264,156,42,390,72,462,1,07/01/2018
406,3180,Brooklyn Bridge Park - Pier 2,40.69878,-73.99712,806,415,883,994,1110,2104,1,07/01/2018
407,3182,Yankee Ferry Terminal,40.686931,-74.016966,564,397,924,771,1114,1885,1,07/01/2018
408,3221,47 Ave & 31 St,40.743,-73.93561,302,91,41,367,67,434,1,07/01/2018
409,3223,E 55 St & 3 Ave,40.758996559605116,-73.96865397691727,2722,584,151,3282,175,3457,1,07/01/2018
410,3226,W 82 St & Central Park West,40.78275,-73.97137,2104,874,629,2654,953,3607,1,07/01/2018
411,3231,E 67 St & Park Ave,40.76780080148132,-73.96592080593109,355,86,52,436,57,493,1,07/01/2018
412,3232,Bond St & Fulton St,40.68962188790333,-73.98304268717766,1658,728,188,2311,263,2574,1,07/01/2018
413,3233,E 48 St & 5 Ave,40.75724567911726,-73.97805914282799,3962,733,582,4502,775,5277,1,07/01/2018
414,3235,E 41 St & Madison Ave,40.752165280621966,-73.97992193698882,3415,694,289,4021,377,4398,1,07/01/2018
415,3236,W 42 St & Dyer Ave,40.75898481399634,-73.99379968643187,3298,660,284,3728,514,4242,1,07/01/2018
416,3240,NYCBS Depot BAL - DYR,40.759030082196055,-73.9938586950302,20,0,0,20,0,20,1,07/01/2018
417,3241,Monroe St & Tompkins Ave,40.686203000000006,-73.944694,456,276,47,722,57,779,1,07/01/2018
418,3242,Schermerhorn St & Court St,40.69102925677968,-73.99183362722397,455,203,35,641,52,693,1,07/01/2018
419,3243,E 58 St & 1 Ave,40.75892386377695,-73.96226227283478,1993,617,249,2511,348,2859,1,07/01/2018
420,3244,University Pl & E 8 St,40.73143724085228,-73.99490341544151,2632,965,312,3490,419,3909,1,07/01/2018
421,3249,Verona Pl & Fulton St,40.680356084043396,-73.94767910242079,497,270,65,764,68,832,1,07/01/2018
422,3254,Soissons Landing,40.69231660719192,-74.01486575603484,751,581,1156,960,1528,2488,1,07/01/2018
423,3255,8 Ave & W 31 St,40.7505853470215,-73.9946848154068,6462,1100,570,7364,768,8132,1,07/01/2018
424,3256,Pier 40 - Hudson River Park,40.7277140777778,-74.01129573583603,3914,1967,2299,4994,3186,8180,1,07/01/2018
425,3258,W 27 St & 10 Ave,40.750181563256824,-74.00218427181244,4009,1406,421,5312,524,5836,1,07/01/2018
426,3259,9 Ave & W 28 St,40.74937024193277,-73.99923384189607,1125,372,197,1438,256,1694,1,07/01/2018
427,3260,Mercer St & Bleecker St,40.72706363348306,-73.99662137031554,4664,1747,507,6251,667,6918,1,07/01/2018
428,3263,Cooper Square & Astor Pl,40.729514962249496,-73.99075269699097,4946,1753,460,6583,576,7159,1,07/01/2018
429,3282,5 Ave & E 88 St,40.78307,-73.95939,2019,1158,2707,2135,3749,5884,1,07/01/2018
430,3283,W 89 St & Columbus Ave,40.7882213,-73.97041561,1762,997,247,2683,323,3006,1,07/01/2018
431,3284,E 88 St & Park Ave,40.781410700190015,-73.95595908164978,910,334,128,1188,184,1372,1,07/01/2018
432,3285,W 87 St & Amsterdam Ave,40.78839,-73.9747,1803,706,187,2424,272,2696,1,07/01/2018
433,3288,E 88 St & 1 Ave,40.778301,-73.9488134,767,382,96,1126,119,1245,1,07/01/2018
434,3289,W 90 St & Amsterdam Ave,40.79017948095081,-73.97288918495178,996,401,113,1330,180,1510,1,07/01/2018
435,3292,5 Ave & E 93 St,40.785785100000005,-73.957481,834,469,821,1040,1084,2124,1,07/01/2018
436,3293,W 92 St & Broadway,40.7921,-73.9739,1281,595,112,1798,190,1988,1,07/01/2018
437,3294,E 91 St & Park Ave,40.7835016,-73.955327,813,339,117,1106,163,1269,1,07/01/2018
438,3295,Central Park W & W 96 St,40.791270000000004,-73.964839,2077,1019,1116,2754,1458,4212,1,07/01/2018
439,3296,E 93 St & 2 Ave,40.78245417527987,-73.94891962409021,889,332,73,1192,102,1294,1,07/01/2018
440,3297,6 St & 7 Ave,40.668662700000006,-73.97988067,525,222,75,747,75,822,1,07/01/2018
441,3298,Warren St & Court St,40.686371,-73.99383324,831,436,105,1242,130,1372,1,07/01/2018
442,3299,E 98 St & Park Ave,40.788129999999995,-73.95206,328,143,41,463,49,512,1,07/01/2018
443,3300,Prospect Park West & 8 St,40.66514681533792,-73.97637605667114,808,520,158,1275,211,1486,1,07/01/2018
444,3301,Columbus Ave & W 95 St,40.7919557,-73.968087,2232,1118,258,3304,304,3608,1,07/01/2018
445,3302,Columbus Ave & W 103 St,40.7969347,-73.9643412291,353,137,90,478,102,580,1,07/01/2018
446,3303,Butler St & Court St,40.6849894,-73.99440329,542,333,77,878,74,952,1,07/01/2018
447,3304,6 Ave & 9 St,40.668127,-73.98377641,705,399,101,1123,82,1205,1,07/01/2018
448,3305,E 91 St & 2 Ave,40.781122299341654,-73.94965589046478,1927,761,163,2629,222,2851,1,07/01/2018
449,3306,10 St & 7 Ave,40.666207799999995,-73.98199886,648,331,71,971,79,1050,1,07/01/2018
450,3307,West End Ave & W 94 St,40.7941654,-73.974124,1037,557,194,1528,260,1788,1,07/01/2018
451,3308,Kane St & Clinton St,40.686175799999994,-73.99645295,772,392,70,1132,102,1234,1,07/01/2018
452,3309,E 97 St & 3 Ave,40.7859201,-73.94860294,324,139,38,458,43,501,1,07/01/2018
453,3310,14 St & 7 Ave,40.663779,-73.98396846,737,306,72,1022,93,1115,1,07/01/2018
454,3311,Columbia St & Kane St,40.68763155,-74.0016256,687,306,151,934,210,1144,1,07/01/2018
455,3312,1 Ave & E 94 St,40.78172120000001,-73.94594000000001,1026,527,154,1512,195,1707,1,07/01/2018
456,3313,6 Ave & 12 St,40.666318100000005,-73.9854617,422,246,32,660,40,700,1,07/01/2018
457,3314,W 95 St & Broadway,40.7937704,-73.971888,1885,702,244,2507,324,2831,1,07/01/2018
458,3315,Henry St & Degraw St,40.684751399999996,-73.99917254,1010,638,122,1660,110,1770,1,07/01/2018
459,3317,10 St & 5 Ave,40.6686273,-73.98700053,519,213,59,712,79,791,1,07/01/2018
460,3318,2 Ave & E 96 St,40.7839636,-73.94716729999999,1848,609,152,2421,188,2609,1,07/01/2018
461,3319,14 St & 5 Ave,40.666287,-73.98895053,768,388,105,1144,117,1261,1,07/01/2018
462,3320,Central Park West & W 100 St,40.794066608185524,-73.96286845207214,1191,540,871,1475,1127,2602,1,07/01/2018
463,3321,Clinton St & Union St,40.683116399999996,-73.99785267,675,408,76,1055,104,1159,1,07/01/2018
464,3322,12 St & 4 Ave,40.668603000000004,-73.99043940000001,340,148,38,484,42,526,1,07/01/2018
465,3323,W 106 St & Central Park West,40.798185600000004,-73.96059090060001,1267,538,487,1627,665,2292,1,07/01/2018
466,3324,3 Ave & 14 St,40.6685455,-73.99333264,462,181,66,640,69,709,1,07/01/2018
467,3326,Clinton St & Centre St,40.67434,-74.00194698,239,96,14,327,22,349,1,07/01/2018
468,3327,3 Ave & E 100 St,40.787721399999995,-73.94728331,254,108,32,356,38,394,1,07/01/2018
469,3328,W 100 St & Manhattan Ave,40.795,-73.9645,1096,493,144,1515,218,1733,1,07/01/2018
470,3329,Degraw St & Smith St,40.6829151,-73.99318208,789,411,191,1222,169,1391,1,07/01/2018
471,3330,Henry St & Bay St,40.672505799999996,-74.00494695,309,243,43,540,55,595,1,07/01/2018
472,3331,Riverside Dr & W 104 St,40.8013434,-73.97114574390001,993,609,293,1420,475,1895,1,07/01/2018
473,3332,Degraw St & Hoyt St,40.68199044270703,-73.99079024791719,465,260,63,726,62,788,1,07/01/2018
474,3333,Columbia St & Lorraine St,40.6747055,-74.00755720000001,84,16,21,101,20,121,1,07/01/2018
475,3335,Union St & 4 Ave,40.6772744,-73.98282002,933,416,138,1333,154,1487,1,07/01/2018
476,3336,E 97 St & Madison Ave,40.787801,-73.953559,1155,445,248,1511,337,1848,1,07/01/2018
477,3337,Dwight St & Van Dyke St,40.67363551341504,-74.01195555925368,163,60,29,205,47,252,1,07/01/2018
478,3338,2 Ave & E 99 St,40.786258600000004,-73.94552579,458,167,53,627,51,678,1,07/01/2018
479,3339,Berkeley Pl & 6 Ave,40.6765304,-73.97846879,596,302,83,900,81,981,1,07/01/2018
480,3340,Wolcott St & Dwight St,40.6753274,-74.0100698,207,135,20,339,23,362,1,07/01/2018
481,3341,Central Park West & W 102 St,40.795346,-73.96186,888,356,284,1143,385,1528,1,07/01/2018
482,3342,Pioneer St & Richards St,40.677774799999995,-74.0094613,342,147,33,487,35,522,1,07/01/2018
483,3343,W 107 St & Columbus Ave,40.7997568,-73.9621128676,495,217,97,685,124,809,1,07/01/2018
484,3344,Pioneer St & Van Brunt St,40.679043,-74.011169,466,327,165,739,219,958,1,07/01/2018
485,3345,Madison Ave & E 99 St,40.78948541553215,-73.9524292945862,745,295,95,989,146,1135,1,07/01/2018
486,3346,Berkeley Pl & 7 Ave,40.675146838709786,-73.9752320945263,1144,867,165,2025,151,2176,1,07/01/2018
487,3347,Van Brunt St & Wolcott St,40.6773429,-74.01275056,384,245,111,609,131,740,1,07/01/2018
488,3348,Coffey St & Conover St,40.677236,-74.015665,355,199,117,521,150,671,1,07/01/2018
489,3349,Grand Army Plaza & Plaza St West,40.6729679,-73.97087984,1578,1003,453,2365,669,3034,1,07/01/2018
490,3350,W 100 St & Broadway,40.797372100000004,-73.97041192,1723,674,182,2314,265,2579,1,07/01/2018
491,3351,E 102 St & 1 Ave,40.7869946,-73.94164802,1086,450,160,1562,134,1696,1,07/01/2018
492,3352,Sigourney St & Columbia St,40.67267243410948,-74.00879524648191,181,89,31,267,34,301,1,07/01/2018
493,3354,3 St & Prospect Park West,40.668132,-73.97363831,1167,659,378,1758,446,2204,1,07/01/2018
494,3355,E 66 St & Madison Ave,40.768008893059466,-73.96845281124116,272,127,109,350,158,508,1,07/01/2018
495,3356,Amsterdam Ave & W 66 St,40.7746671,-73.98470567,1075,440,132,1482,165,1647,1,07/01/2018
496,3357,W 106 St & Amsterdam Ave,40.80083629999999,-73.9664492472,822,430,137,1213,176,1389,1,07/01/2018
497,3358,Garfield Pl & 8 Ave,40.671197799999995,-73.97484126,601,295,78,900,74,974,1,07/01/2018
498,3359,E 68 St & Madison Ave,40.7691572,-73.96703464,761,329,189,1002,277,1279,1,07/01/2018
499,3360,Amsterdam Ave & W 79 St,40.7829391,-73.9786517,2041,887,290,2856,362,3218,1,07/01/2018
500,3361,Carroll St & 6 Ave,40.6740886,-73.9787282,742,419,91,1157,95,1252,1,07/01/2018
501,3362,Madison Ave & E 82 St,40.7781314,-73.96069399,1074,480,631,1313,872,2185,1,07/01/2018
502,3363,E 102 St & Park Ave,40.7904828,-73.95033068,467,245,54,708,58,766,1,07/01/2018
503,3364,Carroll St & 5 Ave,40.6751622,-73.9814832,895,408,98,1292,109,1401,1,07/01/2018
504,3365,3 St & 7 Ave,40.67038370000001,-73.97839676,827,414,121,1238,124,1362,1,07/01/2018
505,3366,West End Ave & W 107 St,40.8021174,-73.9681805305,960,493,159,1422,190,1612,1,07/01/2018
506,3367,5 Ave & E 103 St,40.792255299999994,-73.95249933,1147,692,686,1615,910,2525,1,07/01/2018
507,3368,5 Ave & 3 St,40.672815500000006,-73.98352355,1042,497,182,1547,174,1721,1,07/01/2018
508,3369,E 82 St & East End Ave,40.7724607,-73.9468208,860,373,100,1210,123,1333,1,07/01/2018
509,3370,E 78 St & 2 Ave,40.7727966,-73.95577801,959,419,142,1331,189,1520,1,07/01/2018
510,3371,4 Ave & 2 St,40.674613422475815,-73.98501142859459,460,179,59,657,41,698,1,07/01/2018
511,3372,E 74 St & 1 Ave,40.7689738,-73.95482273,1888,676,106,2502,168,2670,1,07/01/2018
512,3373,3 St & 3 Ave,40.675070500000004,-73.98775226,930,416,110,1336,120,1456,1,07/01/2018
513,3374,Central Park North & Adam Clayton Powell Blvd,40.799484,-73.955613,1572,898,1854,1906,2418,4324,1,07/01/2018
514,3375,3 Ave & E 72 St,40.7699426,-73.96060712,797,276,100,1010,163,1173,1,07/01/2018
515,3376,E 65 St & 2 Ave,40.76471851944339,-73.96222069859505,1107,292,63,1355,107,1462,1,07/01/2018
516,3377,Carroll St & Bond St,40.6786115,-73.99037292,449,204,79,647,85,732,1,07/01/2018
517,3378,E 76 St & Park Ave,40.773763,-73.96222088,946,297,140,1214,169,1383,1,07/01/2018
518,3379,E 103 St & Lexington Ave,40.790305100000005,-73.94755757,512,222,80,738,76,814,1,07/01/2018
519,3381,3 St & Hoyt St,40.6777287,-73.99364123,210,68,18,278,18,296,1,07/01/2018
520,3382,Carroll St & Smith St,40.680611,-73.99475825,1281,570,207,1905,153,2058,1,07/01/2018
521,3383,Cathedral Pkwy & Broadway,40.804213,-73.96699104,1359,579,183,1844,277,2121,1,07/01/2018
522,3384,Smith St & 3 St,40.678724200000005,-73.99599099,778,330,95,1107,96,1203,1,07/01/2018
523,3386,1 Pl & Clinton St,40.6809591,-73.99905709,599,374,62,971,64,1035,1,07/01/2018
524,3387,E 106 St & Madison Ave,40.79343370000001,-73.94945003,274,139,51,390,74,464,1,07/01/2018
525,3388,President St & Henry St,40.6828003,-73.99990419,694,282,91,970,97,1067,1,07/01/2018
526,3389,Carroll St & Columbia St,40.6830456,-74.00348559,585,391,105,955,126,1081,1,07/01/2018
527,3390,E 109 St & 3 Ave,40.79329668,-73.9432083,391,159,28,541,37,578,1,07/01/2018
528,3391,E 106 St & 1 Ave,40.7892529,-73.93956237,253,142,29,393,31,424,1,07/01/2018
529,3392,Commerce St & Van Brunt St,40.681211700000006,-74.00860912,261,110,120,345,146,491,1,07/01/2018
530,3393,Richards St & Delavan St,40.67943270000001,-74.00785041,226,126,25,340,37,377,1,07/01/2018
531,3394,Columbia St & W 9 St,40.6769993,-74.00647134,229,100,12,321,20,341,1,07/01/2018
532,3396,Clinton St & 4 Place,40.6783563,-74.00014502,580,401,84,977,88,1065,1,07/01/2018
533,3397,Court St & Nelson St,40.6763947,-73.99869893,618,305,101,869,155,1024,1,07/01/2018
534,3398,Smith St & 9 St,40.67469570000001,-73.99785768,659,265,97,910,111,1021,1,07/01/2018
535,3399,7 St & 3 Ave,40.67260298150126,-73.98983001708984,421,227,36,630,54,684,1,07/01/2018
536,3400,E 110 St & Madison Ave,40.796153499999996,-73.94782145,815,334,227,1133,243,1376,1,07/01/2018
537,3401,2 Ave & 9 St,40.6724811,-73.99331394,331,107,49,432,55,487,1,07/01/2018
538,3402,Court St & State St,40.6902375,-73.99203074,2044,1015,209,3055,213,3268,1,07/01/2018
539,3403,4 Ave & 9 St,40.6705135,-73.98876585,634,285,90,939,70,1009,1,07/01/2018
540,3404,7 St & 5 Ave,40.670492200000005,-73.98541675,649,288,112,971,78,1049,1,07/01/2018
541,3405,5 St & 6 Ave,40.670483600000004,-73.98208968,445,164,27,598,38,636,1,07/01/2018
542,3407,Union St & Nevins St,40.67909799721684,-73.98765474557877,819,465,161,1223,222,1445,1,07/01/2018
543,3408,Congress St & Clinton St,40.6881529,-73.99520919,1027,529,104,1520,140,1660,1,07/01/2018
544,3409,Bergen St & Smith St,40.686744299999994,-73.99063168,2046,914,254,2910,304,3214,1,07/01/2018
545,3410,Dean St & Hoyt St,40.686444200000004,-73.98759104,714,415,98,1076,151,1227,1,07/01/2018
546,3411,Bond St & Bergen St,40.6849668,-73.98620772,898,487,129,1348,166,1514,1,07/01/2018
547,3412,Pacific St & Nevins St,40.6853761,-73.98302136,648,290,54,943,49,992,1,07/01/2018
548,3413,Wyckoff St & 3 Ave,40.6827549,-73.98258555,679,387,52,1055,63,1118,1,07/01/2018
549,3414,Bergen St & Flatbush Ave,40.680944723477296,-73.97567331790923,928,525,144,1385,212,1597,1,07/01/2018
550,3415,Prospect Pl & 6 Ave,40.6793307,-73.97519523,831,515,82,1329,99,1428,1,07/01/2018
551,3417,Baltic St & 5 Ave,40.6795766,-73.97854971,949,472,115,1420,116,1536,1,07/01/2018
552,3418,Plaza St West & Flatbush Ave,40.675020700000005,-73.97111473,1331,716,242,2029,260,2289,1,07/01/2018
553,3419,Douglass St & 4 Ave,40.67927879999999,-73.98154004,751,354,90,1096,99,1195,1,07/01/2018
554,3420,Douglass St & 3 Ave,40.6802133,-73.98432695,1016,376,74,1393,73,1466,1,07/01/2018
555,3421,Hoyt St & Warren St,40.6843549,-73.98901629,291,182,21,443,51,494,1,07/01/2018
556,3422,Columbia St & Degraw St,40.6859296,-74.00242364,747,396,183,1147,179,1326,1,07/01/2018
557,3423,West Drive & Prospect Park West,40.6610633719006,-73.97945255041121,1654,1041,715,2504,906,3410,1,07/01/2018
558,3424,E 106 St & Lexington Ave,40.791976,-73.945993,362,213,76,570,81,651,1,07/01/2018
559,3425,2 Ave & E 104 St,40.789210499999996,-73.94370784,721,249,91,976,85,1061,1,07/01/2018
560,3427,Lafayette St & Jersey St,40.72430527250332,-73.99600982666016,3993,1601,600,5462,732,6194,1,07/01/2018
561,3429,Hanson Pl & Ashland Pl,40.68506807308177,-73.97790759801863,2841,987,200,3781,247,4028,1,07/01/2018
562,3430,Richardson St & N Henry St,40.71907891179564,-73.94223690032959,918,299,48,1195,70,1265,1,07/01/2018
563,3431,E 35 St & 3 Ave,40.746524,-73.977885,2342,775,184,2992,309,3301,1,07/01/2018
564,3432,NYCBS Depot - GOW,40.66906013501107,-73.99463653564453,16,1,0,17,0,17,1,07/01/2018
565,3434,W 88 St & West End Ave,40.790254173304184,-73.97718340158461,24,13,3,36,4,40,1,07/01/2018
566,3435,Grand St & Elizabeth St,40.718821999999996,-73.99596,4215,2069,738,6098,924,7022,1,07/01/2018
567,3437,Riverside Dr & W 91 St,40.793134809866636,-73.97700369358063,942,587,360,1377,512,1889,1,07/01/2018
568,3438,E 76 St & 3 Ave,40.772248537721744,-73.95842134952545,740,290,121,1027,124,1151,1,07/01/2018
569,3440,Fulton St & Adams St,40.692418292578466,-73.98949474096298,1942,727,395,2569,495,3064,1,07/01/2018
570,3441,10 Hudson Yards,40.752957,-74.00264,376,121,13,506,4,510,1,07/01/2018
571,3443,W 52 St & 6 Ave,40.76132983124814,-73.97982001304626,2769,503,343,3142,473,3615,1,07/01/2018
572,3449,Eckford St & Engert Ave,40.72146256229816,-73.94800901412964,440,124,22,556,30,586,1,07/01/2018
573,3452,Bayard St & Leonard St,40.71915571696044,-73.94885390996933,698,337,29,1006,58,1064,1,07/01/2018
574,3453,Devoe St & Lorimer St,40.71335226222875,-73.9491033554077,167,73,13,231,22,253,1,07/01/2018
575,3454,Leonard St & Maujer St,40.71036854235229,-73.94705951213838,634,351,72,926,131,1057,1,07/01/2018
576,3456,Jackson St & Leonard St,40.716380319735606,-73.94821286201476,266,140,30,399,37,436,1,07/01/2018
577,3457,E 58 St & Madison Ave,40.763025942805186,-73.97209525108337,1525,498,251,1875,399,2274,1,07/01/2018
578,3458,W 55 St & 6 Ave,40.76309387270797,-73.97835016250609,2904,725,451,3412,668,4080,1,07/01/2018
579,3459,E 53 St & 3 Ave,40.75763227739443,-73.9693057537079,2630,620,260,3179,331,3510,1,07/01/2018
580,3461,Murray St & Greenwich St,40.71485150526252,-74.01122331619263,2595,1016,244,3444,411,3855,1,07/01/2018
581,3462,E 44 St & 2 Ave,40.75118387463277,-73.97138714790343,1729,567,155,2199,252,2451,1,07/01/2018
582,3463,E 16 St & Irving Pl,40.735367055605394,-73.98797392845155,2631,873,127,3454,177,3631,1,07/01/2018
583,3466,W 45 St & 6 Ave (OLD),40.75668720603179,-73.98257732391356,2937,511,420,3259,609,3868,1,07/01/2018
584,3467,W Broadway & Spring Street,40.72494672359416,-74.00165855884552,2733,1011,579,3563,760,4323,1,07/01/2018
585,3468,NYCBS Depot - STY - Garage 4,40.730380100000005,-73.9747502,73,2,0,75,0,75,1,07/01/2018
586,3469,India St & West St,40.73181401720966,-73.95995020866394,511,254,103,745,123,868,1,07/01/2018
587,3472,W 15 St & 10 Ave,40.742753828659026,-74.00747358798982,2510,1108,845,3145,1318,4463,1,07/01/2018
588,3474,6 Ave & Spring St,40.7252556952547,-74.00412082672119,2889,1155,353,3828,569,4397,1,07/01/2018
589,3477,39 St & 2 Ave - Citi Bike HQ at Industry City,40.65539977447831,-74.0106278657913,175,79,52,233,73,306,1,07/01/2018
590,3478,2 Ave & 36 St - Citi Bike HQ at Industry City,40.65708866668485,-74.00870203971863,636,212,95,810,133,943,1,07/01/2018
591,3479,Picnic Point,40.68512559515415,-74.02535319328308,481,355,863,664,1035,1699,1,07/01/2018
592,3485,NYCBS Depot - RIS,40.725208,-73.974724,9,4,0,13,0,13,1,07/01/2018
593,3486,Schermerhorn St & Bond St,40.68841742754083,-73.98451656103134,1691,679,141,2364,147,2511,1,07/01/2018
594,3489,Gold St & Frankfort St,40.710699946313866,-74.00354146957396,625,270,363,815,443,1258,1,07/01/2018
595,3490,E 116 St & 2 Ave,40.796879,-73.93726099999999,383,178,50,546,65,611,1,07/01/2018
596,3491,E 118 St & 1 Ave,40.797470000000004,-73.93504,431,157,72,586,74,660,1,07/01/2018
597,3492,E 118 St & Park Ave,40.8005385,-73.9419949,168,63,21,223,29,252,1,07/01/2018
598,3493,E 118 St & 3 Ave,40.799139000000004,-73.9389152,351,155,75,506,75,581,1,07/01/2018
599,3494,E 115 St & Lexington Ave,40.797911,-73.9423,292,117,99,437,71,508,1,07/01/2018
600,3495,E 114 St & 1 Ave,40.79456629999999,-73.9362541,367,97,34,438,60,498,1,07/01/2018
601,3496,1 Ave & E 110 St,40.7923272,-73.9383,837,254,124,1126,89,1215,1,07/01/2018
602,3497,Pleasant Ave & E 116 St,40.794987899999995,-73.9333349,836,397,85,1220,98,1318,1,07/01/2018
603,3498,Pleasant Ave & E 120 St,40.7974772,-73.9311847,216,136,62,360,54,414,1,07/01/2018
604,3499,2 Ave & E 122 St,40.8006721,-73.9349,259,129,26,371,43,414,1,07/01/2018
605,3500,E 115 St & Madison Ave,40.7989445,-73.944846,264,115,76,375,80,455,1,07/01/2018
606,3501,E 118 St & Madison Ave,40.801486600000004,-73.9442507,338,100,46,448,36,484,1,07/01/2018
607,3502,Lexington Ave & E 111 St,40.79541210000001,-73.9441232,452,270,69,678,113,791,1,07/01/2018
608,3503,Madison Ave & E 120 St,40.80295,-73.942954,232,103,31,325,41,366,1,07/01/2018
609,3504,E 123 St & Lexington Ave,40.802926299999996,-73.9379,362,149,36,494,53,547,1,07/01/2018
610,3505,Lexington Ave & E 127 St,40.805726,-73.936322,191,86,46,285,38,323,1,07/01/2018
611,3506,Lexington Ave & E 120 St,40.8013066,-73.93981670000001,188,96,56,256,84,340,1,07/01/2018
612,3507,Park Ave & E 124 St,40.8045555,-73.93968609999999,1671,559,137,2194,173,2367,1,07/01/2018
613,3508,St Nicholas Ave & Manhattan Ave,40.809725,-73.953149,979,325,88,1266,126,1392,1,07/01/2018
614,3509,Lenox Ave & W 115 St,40.8011939,-73.9500739,480,257,120,691,166,857,1,07/01/2018
615,3510,Adam Clayton Powell Blvd & W 123 St,40.8078316,-73.949373,472,250,106,722,106,828,1,07/01/2018
616,3511,Adam Clayton Powell Blvd & W 115 St,40.802535,-73.9532423,330,203,93,515,111,626,1,07/01/2018
617,3512,27 Ave & 4 St,40.7747175,-73.93378940000001,91,34,27,85,67,152,1,07/01/2018
618,3513,21 St & Hoyt Ave S,40.774645,-73.92370600000001,290,115,69,375,99,474,1,07/01/2018
619,3514,Astoria Park S & Shore Blvd,40.7767,-73.927631,442,243,179,618,246,864,1,07/01/2018
620,3515,24 Ave & 26 St,40.774591,-73.918544,341,159,65,497,68,565,1,07/01/2018
621,3516,31 St & Astoria Blvd,40.76991760000001,-73.91840570000001,726,320,81,1022,105,1127,1,07/01/2018
622,3517,31 St & Hoyt Ave N,40.771152799999996,-73.9170074,448,203,77,652,76,728,1,07/01/2018
623,3518,Lenox Ave & W 126 St,40.808442,-73.94520870000001,923,446,247,1343,273,1616,1,07/01/2018
624,3520,Adam Clayton Powell Blvd & W 118 St,40.804372,-73.951475,383,150,113,556,90,646,1,07/01/2018
625,3521,Lenox Ave & W 111 St,40.7987859,-73.9523,1486,576,1042,1809,1295,3104,1,07/01/2018
626,3522,37 St & 24 Ave,40.7701477,-73.9120938,337,67,30,403,31,434,1,07/01/2018
627,3523,24 Ave & 29 St,40.7729,-73.91614200000001,319,148,39,437,69,506,1,07/01/2018
628,3524,19 St & 24 Ave,40.777455200000006,-73.9225403,496,247,80,726,97,823,1,07/01/2018
629,3525,23 Ave & 27 St,40.776165,-73.9153175,157,105,30,243,49,292,1,07/01/2018
630,3526,31 St & 23 Ave,40.7747878,-73.91255509999999,1103,366,184,1435,218,1653,1,07/01/2018
631,3527,5 Ave & E 126 St,40.806979999999996,-73.94174699999999,261,118,52,372,59,431,1,07/01/2018
632,3528,Steinway St & 23 Ave,40.771393700000004,-73.9077436,303,182,59,461,83,544,1,07/01/2018
633,3529,Lenox Ave & W 130 St,40.8107922,-73.9430681,711,421,306,1084,354,1438,1,07/01/2018
634,3530,Crescent St & Ditmars Blvd,40.7787185,-73.9145645,398,115,79,485,107,592,1,07/01/2018
635,3531,Frederick Douglass Blvd & W 129 St,40.8125511,-73.9492286,311,145,112,419,149,568,1,07/01/2018
636,3532,Ditmars Blvd & 19 St,40.78145,-73.9183302,541,180,175,700,196,896,1,07/01/2018
637,3533,St. Nicholas Ave & W 126 St,40.8114323,-73.95187759999999,593,291,120,826,178,1004,1,07/01/2018
638,3534,Frederick Douglass Blvd & W 117 St,40.805159,-73.95469200000001,1317,620,271,1897,311,2208,1,07/01/2018
639,3535,Mt Morris Park W & W 120 St,40.804038,-73.945925,481,239,98,703,115,818,1,07/01/2018
640,3536,W 116 St & Broadway,40.8082,-73.9641,858,427,201,1166,320,1486,1,07/01/2018
641,3537,Carlton Ave & Dean St,40.68097410000001,-73.97100970000001,621,355,50,937,89,1026,1,07/01/2018
642,3538,W 110 St & Amsterdam Ave,40.802692,-73.96295,798,423,199,1146,274,1420,1,07/01/2018
643,3539,W 116 St & Amsterdam Ave,40.8067581,-73.9607082,721,364,148,1028,205,1233,1,07/01/2018
644,3540,Morningside Ave & W 123 St,40.81,-73.9551508,375,176,99,528,122,650,1,07/01/2018
645,3541,Amsterdam Ave & W 125 St,40.813358,-73.956461,409,188,120,558,159,717,1,07/01/2018
646,3542,Amsterdam Ave & W 119 St,40.8086249,-73.9596214,662,280,99,898,143,1041,1,07/01/2018
647,3543,Morningside Dr & Amsterdam Ave,40.81028506306003,-73.95736455917357,293,117,35,384,61,445,1,07/01/2018
648,3544,Underhill Ave & Pacific St,40.6804836,-73.9646795,595,334,49,908,70,978,1,07/01/2018
649,3545,Broadway & W 122 St,40.8120562,-73.9612547,381,145,98,490,134,624,1,07/01/2018
650,3546,Pacific St & Classon Ave,40.67919439999999,-73.95879029999999,206,82,10,278,20,298,1,07/01/2018
651,3547,Broadway & Moylan Pl,40.8143256,-73.9590255,910,359,235,1165,339,1504,1,07/01/2018
652,3549,Grand Ave & Bergen St,40.678045000000004,-73.962408,658,294,57,948,61,1009,1,07/01/2018
653,3551,3 Ave & E 112 St,40.795508,-73.94160600000001,300,138,55,450,43,493,1,07/01/2018
654,3552,W 113 St & Broadway,40.805973,-73.964928,847,402,197,1168,278,1446,1,07/01/2018
655,3553,Frederick Douglass Blvd & W 112 St,40.801694,-73.957145,1161,601,247,1633,376,2009,1,07/01/2018
656,3554,Vernon Blvd & 41 Rd,40.7552433,-73.94856779999999,281,135,116,372,160,532,1,07/01/2018
657,3555,28 St & 41 Ave,40.751047,-73.93796999999999,685,253,111,912,137,1049,1,07/01/2018
658,3556,24 St & 41 Ave,40.752708500000004,-73.9397405,419,105,56,508,72,580,1,07/01/2018
659,3557,40 Ave & 9 St,40.75742,-73.945133,94,60,29,147,36,183,1,07/01/2018
660,3558,Bergen St & Vanderbilt Ave,40.6794388,-73.96804379999999,845,563,132,1377,163,1540,1,07/01/2018
661,3559,21 St & 38 Ave,40.7576314,-73.9391224,96,52,21,135,34,169,1,07/01/2018
662,3560,28 St & 38 Ave,40.754876,-73.934326,348,151,43,492,50,542,1,07/01/2018
663,3561,37 Ave & 35 St,40.7531106,-73.9279917,323,109,27,395,64,459,1,07/01/2018
664,3562,Classon Ave & St Marks Ave,40.676519799999994,-73.9596082,785,399,88,1177,95,1272,1,07/01/2018
665,3563,28 St & 36 Ave,40.757186,-73.93271899999999,332,126,47,448,57,505,1,07/01/2018
666,3564,21 St & 36 Ave,40.760185299999996,-73.9362726,119,46,27,165,27,192,1,07/01/2018
667,3565,36 Ave & 10 St,40.7614376,-73.9411265,356,129,84,432,137,569,1,07/01/2018
668,3566,Crescent St & 35 Ave,40.7596276,-73.93214549999999,249,159,41,414,35,449,1,07/01/2018
669,3567,11 St & 35 Ave,40.76274420000001,-73.9391141,124,16,11,135,16,151,1,07/01/2018
670,3568,34 St & 35 Ave,40.756933200000006,-73.92622309999999,466,220,81,697,70,767,1,07/01/2018
671,3569,Franklin Ave & St Marks Ave,40.6758324,-73.95616770000001,552,359,66,881,96,977,1,07/01/2018
672,3570,35 Ave & 37 St,40.7557327,-73.92366109999999,491,252,100,708,135,843,1,07/01/2018
673,3571,Bedford Ave & Bergen St,40.676368,-73.95291800000001,577,353,94,911,113,1024,1,07/01/2018
674,3572,34 Ave & 38 St,40.756913,-73.921631,869,313,91,1166,107,1273,1,07/01/2018
675,3573,35 St & 34 Ave,40.7580583,-73.92427509999999,319,102,30,415,36,451,1,07/01/2018
676,3574,Prospect Pl & Underhill Ave,40.6769694,-73.96579,613,270,68,893,58,951,1,07/01/2018
677,3575,Crescent St & 34 Ave,40.76108,-73.930562,336,128,61,493,32,525,1,07/01/2018
678,3576,Park Pl & Vanderbilt Ave,40.6767,-73.969024,930,575,123,1501,127,1628,1,07/01/2018
679,3577,34 Ave & 21 St,40.762813799999996,-73.9342862,225,105,53,341,42,383,1,07/01/2018
680,3578,Park Pl & Franklin Ave,40.67418060000001,-73.95649470000001,468,240,35,665,78,743,1,07/01/2018
681,3579,Sterling Pl & Bedford Ave,40.672695000000004,-73.954131,470,261,66,705,92,797,1,07/01/2018
682,3580,St Johns Pl & Washington Ave,40.6737236,-73.9631611,671,309,100,980,100,1080,1,07/01/2018
683,3581,Underhill Ave & Lincoln Pl,40.674012299999994,-73.9671457,671,361,83,1006,109,1115,1,07/01/2018
684,3582,Lincoln Pl & Classon Ave,40.672168299999996,-73.9609,274,130,43,389,58,447,1,07/01/2018
685,3583,Eastern Pkwy & Washington Ave,40.6716493,-73.9631145,517,384,196,849,248,1097,1,07/01/2018
686,3584,Eastern Pkwy & Franklin Ave,40.670776700000005,-73.9576801,856,483,139,1284,194,1478,1,07/01/2018
687,3585,Union St & Bedford Ave,40.6691783,-73.9554162,180,102,34,259,57,316,1,07/01/2018
688,3586,34 Ave & 13 St,40.763875299999995,-73.9364848,165,32,8,176,29,205,1,07/01/2018
689,3587,Carroll St & Washington Ave,40.6686744,-73.9618148,155,74,50,221,58,279,1,07/01/2018
690,3588,Vernon Blvd & 10 St,40.7671863,-73.9373554,368,193,105,522,144,666,1,07/01/2018
691,3589,Broadway & 12 St,40.7668,-73.93477740000002,322,121,21,425,39,464,1,07/01/2018
692,3590,Carroll St & Franklin Ave,40.6679411,-73.9588,116,88,5,187,22,209,1,07/01/2018
693,3591,21 St & 31 Dr,40.7659,-73.930819,516,181,94,699,92,791,1,07/01/2018
694,3592,Crescent St & Broadway,40.7633589,-73.92864709999999,657,232,91,839,141,980,1,07/01/2018
695,3593,31 St & Broadway,40.761584,-73.925921,943,302,123,1222,146,1368,1,07/01/2018
696,3595,35 St & Broadway,40.760339,-73.9222427,479,136,62,622,55,677,1,07/01/2018
697,3596,Sullivan Pl & Bedford Ave,40.6642406,-73.9574686,85,39,37,103,58,161,1,07/01/2018
698,3597,43 St & Broadway,40.7577284,-73.9166368,522,170,38,648,82,730,1,07/01/2018
699,3598,Newton Rd & 44 St,40.7595701,-73.91426779999999,351,109,35,430,65,495,1,07/01/2018
700,3599,Franklin Ave & Empire Blvd,40.663140000000006,-73.96056949999999,776,444,349,1049,520,1569,1,07/01/2018
701,3601,Sterling St & Bedford Ave,40.6627059,-73.9569115,160,102,43,221,84,305,1,07/01/2018
702,3602,31 Ave & 34 St,40.763154,-73.920827,681,205,99,872,113,985,1,07/01/2018
703,3603,31 Ave & 30 St,40.7647,-73.9240312,442,154,64,583,77,660,1,07/01/2018
704,3604,Rogers Ave & Sterling St,40.6630619,-73.95387459999999,404,168,49,520,101,621,1,07/01/2018
705,3605,31 Ave & Crescent St,40.765834600000005,-73.9265474,502,143,39,645,39,684,1,07/01/2018
706,3606,49 Ave & 21 St,40.74252,-73.948852,313,83,26,377,45,422,1,07/01/2018
707,3607,31 Ave & 14 St,40.7682,-73.9322662,251,90,47,348,40,388,1,07/01/2018
708,3608,5 St & 51 Ave,40.7423737,-73.9566,355,84,43,420,62,482,1,07/01/2018
709,3609,Vernon Blvd & 31 Ave,40.7692475,-73.93545040000001,270,190,122,449,133,582,1,07/01/2018
710,3610,Vernon Blvd & 30 Rd,40.770845,-73.93417099999999,585,285,100,842,128,970,1,07/01/2018
711,3611,Vernon Blvd & 47 Rd,40.7449067,-73.9534573,596,238,136,789,181,970,1,07/01/2018
712,3612,30 Ave & 21 St,40.77037429999999,-73.9286078,199,57,35,243,48,291,1,07/01/2018
713,3613,Center Blvd & 48 Ave,40.745038,-73.957539,673,233,148,848,206,1054,1,07/01/2018
714,3614,Crescent St & 30 Ave,40.768692,-73.9249574,376,138,55,518,51,569,1,07/01/2018
715,3615,44 Dr & 21 St,40.748000000000005,-73.94609270000001,726,235,83,950,94,1044,1,07/01/2018
716,3616,Steinway St & 28 Ave,40.7656251,-73.9136695,392,123,55,496,74,570,1,07/01/2018
717,3617,28 Ave & 35 St,40.7671,-73.9169858,405,179,28,563,49,612,1,07/01/2018
718,3618,27 St & Hunter St,40.7485,-73.941275,349,129,47,465,60,525,1,07/01/2018
719,3619,Newtown Ave & 23 St,40.7713615,-73.9246145,440,126,52,573,45,618,1,07/01/2018
720,3620,11 St & 43 Ave,40.7519071,-73.94791190000001,85,21,23,85,44,129,1,07/01/2018
721,3621,27 Ave & 9 St,40.7739825,-73.93091340000001,180,74,69,242,81,323,1,07/01/2018
722,3622,E 128 St & Madison Ave,40.807559999999995,-73.93918199999999,311,84,57,389,63,452,1,07/01/2018
723,3623,W 120 St & Claremont Ave,40.8109494,-73.9634,724,355,144,963,260,1223,1,07/01/2018
724,3625,28 St & 40 Ave,40.752575799999995,-73.9364281,202,70,34,266,40,306,1,07/01/2018
725,3628,Lenox Ave & W 117 St,40.8025566,-73.9490782,666,244,136,884,162,1046,1,07/01/2018
726,3629,Adam Clayton Powell Blvd & W 126 St,40.809495347779475,-73.94776493310928,382,218,123,560,163,723,1,07/01/2018
727,3631,Crown St & Bedford Ave,40.666563000000004,-73.95674100000001,156,64,22,201,41,242,1,07/01/2018
728,3632,E 12 St & Avenue B,40.728048571362606,-73.97881150245668,3088,1139,238,4175,290,4465,1,07/01/2018
729,3635,W 36 St & 9 Ave,40.754623240291046,-73.99516761302948,3228,900,322,3996,454,4450,1,07/01/2018
730,3637,Fulton St & Waverly Ave,40.68323865460341,-73.96599590778352,1040,390,117,1421,126,1547,1,07/01/2018
731,3641,Broadway & W 25 St,40.74286877312112,-73.98918628692627,4989,1589,804,6195,1187,7382,1,07/01/2018
732,3646,35 Ave & 10 St,40.763154819103725,-73.93985509872438,218,62,11,265,26,291,1,07/01/2018
733,3647,48 Ave & 30 Pl,40.74128309355993,-73.93725872039794,150,47,53,191,59,250,1,07/01/2018
734,3648,Flushing Ave & Vanderbilt Ave,40.69795031569544,-73.97077560424805,751,393,216,1090,270,1360,1,07/01/2018
735,3649,W 129 St & Convent Ave,40.81439443791581,-73.95324736833571,336,160,64,460,100,560,1,07/01/2018
736,3650,8D Mobile 01,45.506264191001186,-73.56890559196472,1,0,0,1,0,1,1,07/01/2018
737,3653,31 St & 35 Ave,40.75820464696758,-73.92832159996033,521,196,49,715,51,766,1,07/01/2018
738,3654,31 St & Northern Blvd,40.75186951421875,-73.93349289894103,255,122,73,396,54,450,1,07/01/2018
739,3656,E 2 St & Avenue A,40.72307749068673,-73.98583620786667,2926,1140,275,3995,346,4341,1,07/01/2018
740,3658,W 18 St & 9 Ave,40.7435337324616,-74.00367558002472,704,227,72,914,89,1003,1,07/01/2018
741,3659,W 17 St & 9 Ave,40.7429489166009,-74.00413691997528,3178,1010,460,4050,598,4648,1,07/01/2018
742,3660,W 16 St & 8 Ave,40.74102150900266,-74.001384973526,5541,1646,477,7050,614,7664,1,07/01/2018
743,3661,Montgomery St & Franklin Ave,40.666439306870814,-73.96055638790129,113,77,36,167,59,226,1,07/01/2018
744,3662,31 Ave & Steinway St,40.76129389728909,-73.916916847229,470,165,74,604,105,709,1,07/01/2018
745,3663,Sterling Pl & 7 Ave,40.67716489469059,-73.97382795810701,335,197,26,531,27,558,1,07/01/2018
746,3664,North Moore St & Greenwich St,40.72019521437465,-74.0103006362915,3299,930,467,3996,700,4696,1,07/01/2018
747,3666,32 St & 30 Ave,40.7664255270288,-73.92062902450563,981,308,135,1271,153,1424,1,07/01/2018
748,3668,Leonard St & Nassau Ave,40.7239567849954,-73.94984364509583,1012,477,70,1462,97,1559,1,07/01/2018
749,3669,Henry St & W 9 St,40.67630357634183,-74.00314047932625,142,55,6,190,13,203,1,07/01/2018
750,3671,E 81 St & 2 Ave,40.77477944895728,-73.95427465438844,511,124,63,601,97,698,1,07/01/2018
751,3673,Dean St & Franklin Ave,40.67759206937376,-73.95563721656801,691,317,72,949,131,1080,1,07/01/2018
752,3674,Jay St & York St,40.70140317257725,-73.98672670125961,1970,933,354,2773,484,3257,1,07/01/2018
753,3675,3 Ave & E 95 St,40.784596798848916,-73.94968539476396,556,235,66,799,58,857,1,07/01/2018
754,3676,Van Brunt St & Van Dyke St,40.675832943912894,-74.01472628116608,606,385,261,915,337,1252,1,07/01/2018
755,3680,E 43 St & 5 Ave,40.754120810779256,-73.98025184869765,2495,461,282,2882,356,3238,1,07/01/2018
756,3683,Smart Cities Conference,40.71015471094912,-73.98453533649443,16,0,1,16,1,17,1,07/01/2018
757,3684,W 12 St & W 4 St,40.73756121181137,-74.00398269295692,2698,760,307,3369,396,3765,1,07/01/2018
758,3686,Gansevoort St & Hudson St,40.73944820130404,-74.00507032871245,3982,1640,603,5382,843,6225,1,07/01/2018
759,3687,E 33 St & 1 Ave,40.74322681432173,-73.97449783980845,3459,1017,282,4351,407,4758,1,07/01/2018
760,3688,2 Ave & E 55 St,40.75792020879402,-73.96638214588165,1882,584,217,2404,279,2683,1,07/01/2018
761,3689,W 104 St & Amsterdam Ave,40.79904139288298,-73.96649479866028,773,356,140,1065,204,1269,1,07/01/2018
762,3690,Park Pl & Church St,40.71334184275907,-74.00935515761375,755,234,134,945,178,1123,1,07/01/2018
763,3691,28 Ave & 44 St,40.76408932350689,-73.9106512069702,285,89,40,334,80,414,1,07/01/2018
764,3692,5 St & Market St,40.6999974843885,-73.97440128028394,178,38,10,213,13,226,1,07/01/2018
765,3693,N 11 St & Kent Ave,40.72248188638219,-73.95921930670737,527,249,240,674,342,1016,1,07/01/2018
766,3695,E 5 St & 2 Ave,40.72686951528207,-73.9891903102398,680,232,64,874,102,976,1,07/01/2018
767,3697,W 64 St & Thelonious Monk Circle,40.77515953434235,-73.98918695747851,249,84,26,319,40,359,1,07/01/2018
0,72,W 52 St & 11 Ave,40.76727216,-73.99392888,2822,976,658,3476,980,4456,0,07/01/2018
1,79,Franklin St & W Broadway,40.71911552,-74.00666661,1815,682,273,2412,358,2770,0,07/01/2018
2,82,St James Pl & Pearl St,40.71117416,-74.00016545,767,298,216,1005,276,1281,0,07/01/2018
3,83,Atlantic Ave & Fort Greene Pl,40.68382604,-73.97632328,1274,379,219,1625,247,1872,0,07/01/2018
4,119,Park Ave & St Edwards St,40.69608941,-73.97803415,226,92,39,309,48,357,0,07/01/2018
5,120,Lexington Ave & Classon Ave,40.68676793,-73.95928168,672,443,68,1068,115,1183,0,07/01/2018
6,127,Barrow St & Hudson St,40.73172428,-74.00674436,4379,1576,430,5836,549,6385,0,07/01/2018
7,128,MacDougal St & Prince St,40.72710258,-74.00297088,4507,1924,485,6232,684,6916,0,07/01/2018
8,143,Clinton St & Joralemon St,40.69239502,-73.99337909,1419,849,132,2265,135,2400,0,07/01/2018
9,144,Nassau St & Navy St,40.69839895,-73.98068914,647,380,253,935,345,1280,0,07/01/2018
10,146,Hudson St & Reade St,40.71625008,-74.0091059,2040,799,261,2813,287,3100,0,07/01/2018
11,150,E 2 St & Avenue C,40.720873600000004,-73.98085795,2524,1218,149,3634,257,3891,0,07/01/2018
12,151,Cleveland Pl & Spring St,40.72210378668603,-73.99724900722505,5064,1968,813,6737,1108,7845,0,07/01/2018
13,157,Henry St & Atlantic Ave,40.69089272,-73.99612349,1276,662,204,1913,229,2142,0,07/01/2018
14,161,LaGuardia Pl & W 3 St,40.72917025,-73.99810231,367,133,57,473,84,557,0,07/01/2018
15,164,E 47 St & 2 Ave,40.75323098,-73.97032517,2075,689,168,2697,235,2932,0,07/01/2018
16,167,E 39 St & 3 Ave,40.7489006,-73.97604882,3450,821,302,4103,470,4573,0,07/01/2018
17,168,W 18 St & 6 Ave,40.73971301,-73.99456405,5462,1912,431,7274,531,7805,0,07/01/2018
18,173,Broadway & W 49 St,40.76068327096592,-73.98452728986742,4555,935,1011,5159,1342,6501,0,07/01/2018
19,174,E 25 St & 1 Ave,40.7381765,-73.97738662,2178,817,212,2981,226,3207,0,07/01/2018
20,195,Liberty St & Broadway,40.70905623,-74.01043382,3048,789,565,3599,803,4402,0,07/01/2018
21,212,W 16 St & The High Line,40.74334935,-74.00681753,2969,1108,617,3816,878,4694,0,07/01/2018
22,216,Columbia Heights & Cranberry St,40.70037867,-73.99548059,394,143,199,449,287,736,0,07/01/2018
23,217,Old Fulton St,40.70277159,-73.99383605,2196,1066,1604,2652,2214,4866,0,07/01/2018
24,223,W 13 St & 7 Ave,40.73781509,-73.99994661,3171,1027,238,4189,247,4436,0,07/01/2018
25,228,E 48 St & 3 Ave,40.7546011026,-73.971878855,2112,477,315,2470,434,2904,0,07/01/2018
26,229,Great Jones St,40.72743423,-73.99379025,5322,2113,412,7353,494,7847,0,07/01/2018
27,232,Cadman Plaza E & Tillary St,40.69597683,-73.99014892,598,341,855,588,1206,1794,0,07/01/2018
28,236,St Marks Pl & 2 Ave,40.7284186,-73.98713956,4216,1511,531,5601,657,6258,0,07/01/2018
29,237,E 11 St & 2 Ave,40.73047309,-73.98672378,4012,1467,418,5280,617,5897,0,07/01/2018
30,238,Bank St & Washington St,40.7361967,-74.00859207,1979,923,478,2652,728,3380,0,07/01/2018
31,239,Willoughby St & Fleet St,40.69196566,-73.9813018,1489,694,148,2171,160,2331,0,07/01/2018
32,241,DeKalb Ave & S Portland Ave,40.68981035,-73.97493121,878,573,153,1396,208,1604,0,07/01/2018
33,242,Carlton Ave & Flushing Ave,40.697787,-73.973736,772,338,97,1069,138,1207,0,07/01/2018
34,243,Fulton St & Rockwell Pl,40.688226,-73.979382,979,463,64,1448,58,1506,0,07/01/2018
35,244,Willoughby Ave & Hall St,40.69196035,-73.96536851,972,383,72,1332,95,1427,0,07/01/2018
36,245,Myrtle Ave & St Edwards St,40.69327018,-73.97703874,413,243,80,617,119,736,0,07/01/2018
37,247,Perry St & Bleecker St,40.73535398,-74.00483091,1951,731,253,2564,371,2935,0,07/01/2018
38,248,Laight St & Hudson St,40.72185379,-74.00771779,886,266,86,1119,119,1238,0,07/01/2018
39,249,Harrison St & Hudson St,40.71870987,-74.0090009,1145,395,113,1479,174,1653,0,07/01/2018
40,251,Mott St & Prince St,40.72317958,-73.99480012,3757,1616,519,5256,636,5892,0,07/01/2018
41,252,MacDougal St & Washington Sq,40.73226398,-73.99852205,2427,943,476,3184,662,3846,0,07/01/2018
42,253,W 13 St & 5 Ave,40.73543934,-73.99453948,2269,860,194,3070,253,3323,0,07/01/2018
43,254,W 11 St & 6 Ave,40.73532427,-73.99800419,1745,802,188,2530,205,2735,0,07/01/2018
44,257,Lispenard St & Broadway,40.71939226,-74.00247214,2463,979,366,3260,548,3808,0,07/01/2018
45,258,DeKalb Ave & Vanderbilt Ave,40.68940747,-73.96885458,1039,443,153,1461,174,1635,0,07/01/2018
46,259,South St & Whitehall St,40.70122128,-74.01234218,2293,955,788,2880,1156,4036,0,07/01/2018
47,260,Broad St & Bridge St,40.70365182,-74.01167797,485,132,77,574,120,694,0,07/01/2018
48,261,Johnson St & Gold St,40.69474881,-73.98362464,936,331,147,1210,204,1414,0,07/01/2018
49,262,Washington Park,40.6917823,-73.97372990000001,709,325,71,1021,84,1105,0,07/01/2018
50,264,Maiden Ln & Pearl St,40.70706456,-74.00731853,1785,488,187,2178,282,2460,0,07/01/2018
51,265,Stanton St & Chrystie St,40.72229346,-73.99147535,3563,1401,518,4785,697,5482,0,07/01/2018
52,266,Avenue D & E 8 St,40.72368361,-73.97574813,1056,577,97,1608,122,1730,0,07/01/2018
53,267,Broadway & W 36 St,40.75097711,-73.98765428,2786,839,509,3486,648,4134,0,07/01/2018
54,268,Howard St & Centre St,40.71910537,-73.99973337,2829,1008,453,3639,651,4290,0,07/01/2018
55,270,Adelphi St & Myrtle Ave,40.69308257,-73.97178913,1216,473,73,1666,96,1762,0,07/01/2018
56,274,Lafayette Ave & Fort Greene Pl,40.68691865,-73.976682,1289,698,136,1965,158,2123,0,07/01/2018
57,275,Washington Ave & Greene Ave,40.68650065,-73.96563307,693,293,67,967,86,1053,0,07/01/2018
58,276,Duane St & Greenwich St,40.71748752,-74.0104554,1516,602,152,2034,236,2270,0,07/01/2018
59,278,Concord St & Bridge St,40.69766564,-73.98476437,477,249,199,679,246,925,0,07/01/2018
60,279,Peck Slip & Front St,40.707873,-74.00166999999999,2195,960,760,2809,1106,3915,0,07/01/2018
61,280,E 10 St & 5 Ave,40.73331967,-73.99510132,1733,808,228,2512,257,2769,0,07/01/2018
62,281,Grand Army Plaza & Central Park S,40.764397100000004,-73.97371465,4062,1426,2747,4934,3301,8235,0,07/01/2018
63,282,Kent Ave & S 11 St,40.7076449441757,-73.96841526031494,1010,739,451,1587,613,2200,0,07/01/2018
64,285,Broadway & E 14 St,40.73454567,-73.99074142,6423,2226,584,8318,915,9233,0,07/01/2018
65,289,Monroe St & Classon Ave,40.684568299999995,-73.95881081,380,281,35,633,63,696,0,07/01/2018
66,291,Madison St & Montgomery St,40.713126,-73.984844,1241,385,169,1624,171,1795,0,07/01/2018
67,293,Lafayette St & E 8 St,40.73020660529954,-73.99102628231049,5654,1934,513,7527,574,8101,0,07/01/2018
68,295,Pike St & E Broadway,40.71406667,-73.99293911,1776,742,268,2495,291,2786,0,07/01/2018
69,296,Division St & Bowery,40.71413089,-73.99704679999999,2469,941,362,3303,469,3772,0,07/01/2018
70,297,E 15 St & 3 Ave,40.734232,-73.986923,3763,1430,218,5099,312,5411,0,07/01/2018
71,298,3 Ave & Schermerhorn St,40.68683208,-73.9796772,1036,524,144,1509,195,1704,0,07/01/2018
72,301,E 2 St & Avenue B,40.72217444,-73.98368779,3054,1217,335,4134,472,4606,0,07/01/2018
73,302,Avenue D & E 3 St,40.72082834,-73.97793172,1374,711,81,2073,93,2166,0,07/01/2018
74,303,Mercer St & Spring St,40.72362738,-73.99949601,2396,1023,470,3190,699,3889,0,07/01/2018
75,304,Broadway & Battery Pl,40.70463334,-74.01361706,3756,1357,769,4687,1195,5882,0,07/01/2018
76,305,E 58 St & 3 Ave,40.76095756,-73.96724467,3175,909,342,3977,449,4426,0,07/01/2018
77,306,Cliff St & Fulton St_1,40.70823502,-74.00530063,2044,670,190,2583,321,2904,0,07/01/2018
78,307,Canal St & Rutgers St,40.71427487,-73.98990025,4184,1368,385,5560,377,5937,0,07/01/2018
79,308,St James Pl & Oliver St,40.71307916,-73.99851193,1611,501,287,2053,346,2399,0,07/01/2018
80,309,Murray St & West St,40.7149787,-74.013012,2356,877,612,2969,876,3845,0,07/01/2018
81,310,State St & Smith St,40.68926942,-73.98912867,1291,635,159,1881,204,2085,0,07/01/2018
82,311,Norfolk St & Broome St,40.7172274,-73.98802084,2387,832,312,3093,438,3531,0,07/01/2018
83,312,Allen St & Stanton St,40.722055,-73.989111,3518,1426,535,4761,718,5479,0,07/01/2018
84,313,Washington Ave & Park Ave,40.69610226,-73.96751037,1010,366,144,1320,200,1520,0,07/01/2018
85,314,Cadman Plaza West & Montague St,40.69383,-73.990539,1246,566,125,1758,179,1937,0,07/01/2018
86,315,South St & Gouverneur Ln,40.70355377,-74.00670227,3819,1586,726,5102,1029,6131,0,07/01/2018
87,316,Fulton St & William St,40.70955958,-74.00653609,1868,536,220,2334,290,2624,0,07/01/2018
88,317,E 6 St & Avenue B,40.72453734,-73.98185424,2457,1182,165,3535,269,3804,0,07/01/2018
89,319,Fulton St & Broadway,40.711065999999995,-74.009447,3013,934,771,3640,1078,4718,0,07/01/2018
90,320,Leonard St & Church St,40.717571,-74.005549,1679,574,144,2136,261,2397,0,07/01/2018
91,321,Cadman Plaza E & Red Cross Pl,40.69991755,-73.98971773,1389,598,746,1720,1013,2733,0,07/01/2018
92,322,Clinton St & Tillary St,40.696191999999996,-73.991218,719,335,442,905,591,1496,0,07/01/2018
93,323,Lawrence St & Willoughby St,40.69236178,-73.98631746,235,100,33,313,55,368,0,07/01/2018
94,324,DeKalb Ave & Hudson Ave,40.689888,-73.981013,2350,1104,204,3434,224,3658,0,07/01/2018
95,325,E 19 St & 3 Ave,40.73624527,-73.98473765,2349,827,116,3121,171,3292,0,07/01/2018
96,326,E 11 St & 1 Ave,40.72953837,-73.98426726,3346,1213,311,4449,421,4870,0,07/01/2018
97,327,Vesey Pl & River Terrace,40.715337899999994,-74.01658354,5294,1588,1048,6450,1480,7930,0,07/01/2018
98,328,Watts St & Greenwich St,40.72405549,-74.00965965,2883,846,323,3461,591,4052,0,07/01/2018
99,330,Reade St & Broadway,40.71450451,-74.00562789,1790,622,294,2355,351,2706,0,07/01/2018
100,331,Pike St & Monroe St,40.71173107,-73.99193043,1151,521,269,1685,256,1941,0,07/01/2018
101,332,Cherry St,40.71219906,-73.97948148,1164,489,339,1538,454,1992,0,07/01/2018
102,334,W 20 St & 7 Ave,40.74238787,-73.99726235,3947,1076,209,4926,306,5232,0,07/01/2018
103,335,Washington Pl & Broadway,40.72903917,-73.99404649,2497,831,242,3242,328,3570,0,07/01/2018
104,336,Sullivan St & Washington Sq,40.73047747,-73.99906065,3816,1273,574,4777,886,5663,0,07/01/2018
105,337,Old Slip & Front St,40.703799200000006,-74.00838676,1578,468,200,1963,283,2246,0,07/01/2018
106,339,Avenue D & E 12 St,40.72580614,-73.97422494,709,424,122,1123,132,1255,0,07/01/2018
107,340,Madison St & Clinton St,40.71269042,-73.98776323,1285,609,215,1947,162,2109,0,07/01/2018
108,341,Stanton St & Mangin St,40.71782143,-73.97628939,1120,517,169,1543,263,1806,0,07/01/2018
109,342,Columbia St & Rivington St,40.71739973,-73.98016555,1216,657,71,1849,95,1944,0,07/01/2018
110,343,Clinton Ave & Flushing Ave,40.69794,-73.96986848,555,280,259,757,337,1094,0,07/01/2018
111,344,Monroe St & Bedford Ave,40.6851443,-73.95380904,592,491,79,1071,91,1162,0,07/01/2018
112,345,W 13 St & 6 Ave,40.73649403,-73.99704374,3295,1099,193,4320,267,4587,0,07/01/2018
113,346,Bank St & Hudson St,40.73652889,-74.00618026,2415,977,318,3281,429,3710,0,07/01/2018
114,347,Greenwich St & W Houston St,40.728846000000004,-74.00859100000001,4123,1455,452,5332,698,6030,0,07/01/2018
115,349,Rivington St & Ridge St,40.71850211,-73.98329859,1635,591,179,2106,299,2405,0,07/01/2018
116,350,Clinton St & Grand St,40.71559509,-73.9870295,1990,917,263,2855,315,3170,0,07/01/2018
117,351,Front St & Maiden Ln,40.70530954,-74.00612572,2211,683,435,2692,637,3329,0,07/01/2018
118,353,S Portland Ave & Hanson Pl,40.68539567,-73.97431458,776,391,85,1148,104,1252,0,07/01/2018
119,354,Emerson Pl & Myrtle Ave,40.69363137,-73.96223558,1087,504,81,1551,121,1672,0,07/01/2018
120,355,Bayard St & Baxter St,40.71602118,-73.99974372,2365,870,390,3109,516,3625,0,07/01/2018
121,356,Bialystoker Pl & Delancey St,40.71622644,-73.98261206,924,504,136,1408,156,1564,0,07/01/2018
122,357,E 11 St & Broadway,40.73261787,-73.99158043,1437,591,141,1979,190,2169,0,07/01/2018
123,358,Christopher St & Greenwich St,40.73291553,-74.00711384,6080,2185,757,7911,1111,9022,0,07/01/2018
124,359,E 47 St & Park Ave,40.75510267,-73.97498696,6274,800,381,7060,395,7455,0,07/01/2018
125,360,William St & Pine St,40.70717936,-74.00887308,1680,460,211,2056,295,2351,0,07/01/2018
126,361,Allen St & Hester St,40.71605866,-73.99190759,3122,1408,308,4453,385,4838,0,07/01/2018
127,362,Broadway & W 37 St,40.75172632,-73.98753523,1331,335,159,1600,225,1825,0,07/01/2018
128,363,West Thames St,40.70834698,-74.01713445,2667,1382,571,3824,796,4620,0,07/01/2018
129,364,Lafayette Ave & Classon Ave,40.68900443,-73.96023854,1114,562,123,1645,154,1799,0,07/01/2018
130,365,Fulton St & Grand Ave,40.68223166,-73.9614583,660,370,70,1008,92,1100,0,07/01/2018
131,366,Clinton Ave & Myrtle Ave,40.693261,-73.968896,1576,708,113,2235,162,2397,0,07/01/2018
132,368,Carmine St & 6 Ave,40.73038599,-74.00214988,6436,2117,816,8214,1155,9369,0,07/01/2018
133,369,Washington Pl & 6 Ave,40.73224119,-74.00026394,2348,694,264,2908,398,3306,0,07/01/2018
134,372,Franklin Ave & Myrtle Ave,40.694546087246025,-73.95801365375519,507,198,97,646,156,802,0,07/01/2018
135,373,Willoughby Ave & Walworth St,40.69331716,-73.95381995,427,153,72,583,69,652,0,07/01/2018
136,376,John St & William St,40.70862144,-74.00722156,1677,598,180,2226,229,2455,0,07/01/2018
137,377,6 Ave & Canal St,40.72243797,-74.00566443,3682,957,451,4451,639,5090,0,07/01/2018
138,379,W 31 St & 7 Ave,40.749156,-73.9916,5751,1116,312,6686,493,7179,0,07/01/2018
139,380,W 4 St & 7 Ave S,40.73401143,-74.00293877,3966,1363,594,5103,820,5923,0,07/01/2018
140,382,University Pl & E 14 St,40.73492695,-73.99200509,5333,2066,479,7265,613,7878,0,07/01/2018
141,383,Greenwich Ave & Charles St,40.735238,-74.000271,3279,1307,297,4435,448,4883,0,07/01/2018
142,386,Centre St & Worth St,40.71494807,-74.00234482,1569,640,485,2053,641,2694,0,07/01/2018
143,387,Centre St & Chambers St,40.71273266,-74.0046073,3509,1542,3146,3791,4406,8197,0,07/01/2018
144,388,W 26 St & 10 Ave,40.749717753,-74.002950346,2612,1073,330,3595,420,4015,0,07/01/2018
145,389,Broadway & Berry St,40.71044554,-73.96525063,1443,772,232,2143,304,2447,0,07/01/2018
146,390,Duffield St & Willoughby St,40.69221589,-73.9842844,1971,615,213,2562,237,2799,0,07/01/2018
147,391,Clark St & Henry St,40.69760127,-73.99344559,1515,612,219,2062,284,2346,0,07/01/2018
148,392,Jay St & Tech Pl,40.695065,-73.987167,1317,633,692,1724,918,2642,0,07/01/2018
149,393,E 5 St & Avenue C,40.72299208,-73.97995466,1535,645,64,2125,119,2244,0,07/01/2018
150,394,E 9 St & Avenue C,40.72521311,-73.97768752,2582,1125,213,3676,244,3920,0,07/01/2018
151,396,Lefferts Pl & Franklin Ave,40.680342423,-73.9557689392,529,248,97,778,96,874,0,07/01/2018
152,397,Fulton St & Clermont Ave,40.68415748,-73.96922273,418,213,64,655,40,695,0,07/01/2018
153,398,Atlantic Ave & Furman St,40.69165183,-73.99997859999999,1874,1076,677,2701,926,3627,0,07/01/2018
154,399,Lafayette Ave & St James Pl,40.68851534,-73.9647628,653,320,66,956,83,1039,0,07/01/2018
155,400,Pitt St & Stanton St,40.71926081,-73.98178024,774,304,84,1076,86,1162,0,07/01/2018
156,401,Allen St & Rivington St,40.72019576,-73.98997825,3436,1165,409,4446,564,5010,0,07/01/2018
157,402,Broadway & E 22 St,40.740343200000005,-73.98955109,6704,2264,634,8763,839,9602,0,07/01/2018
158,403,E 2 St & 2 Ave,40.72502876,-73.99069656,4669,1928,489,6437,649,7086,0,07/01/2018
159,405,Washington St & Gansevoort St,40.739323,-74.008119,4031,1688,1229,5134,1814,6948,0,07/01/2018
160,406,Hicks St & Montague St,40.69512845,-73.99595065,1439,547,174,1877,283,2160,0,07/01/2018
161,407,Henry St & Poplar St,40.700469,-73.991454,701,248,238,830,357,1187,0,07/01/2018
162,408,Market St & Cherry St,40.71076228,-73.99400398,1328,473,253,1743,311,2054,0,07/01/2018
163,409,DeKalb Ave & Skillman St,40.6906495,-73.95643107,577,306,132,847,168,1015,0,07/01/2018
164,410,Suffolk St & Stanton St,40.72066442,-73.98517977,3225,1249,490,4340,624,4964,0,07/01/2018
165,411,E 6 St & Avenue D,40.72228087,-73.97668709,1249,667,139,1861,194,2055,0,07/01/2018
166,412,Forsyth St & Canal St,40.715815500000005,-73.99422366,2714,1206,759,3689,990,4679,0,07/01/2018
167,414,Pearl St & Anchorage Pl,40.70281858,-73.98765762,1409,587,398,1832,562,2394,0,07/01/2018
168,415,Pearl St & Hanover Square,40.7047177,-74.00926027,1958,612,213,2496,287,2783,0,07/01/2018
169,416,Cumberland St & Lafayette Ave,40.68753406,-73.97265183,844,461,84,1281,108,1389,0,07/01/2018
170,417,Barclay St & Church St,40.71291224,-74.01020234,3550,896,579,4170,855,5025,0,07/01/2018
171,418,Front St & Gold St,40.70224,-73.982578,887,488,195,1343,227,1570,0,07/01/2018
172,419,Carlton Ave & Park Ave,40.69580705,-73.97355569,486,207,37,681,49,730,0,07/01/2018
173,420,Clermont Ave & Lafayette Ave,40.68764484,-73.96968902,643,309,66,938,80,1018,0,07/01/2018
174,421,Clermont Ave & Park Ave,40.69573398,-73.97129668,375,198,62,594,41,635,0,07/01/2018
175,422,W 59 St & 10 Ave,40.770513,-73.988038,2397,822,233,3153,299,3452,0,07/01/2018
176,423,W 54 St & 9 Ave,40.76584941,-73.98690506,2789,630,374,3267,526,3793,0,07/01/2018
177,426,West St & Chambers St,40.71754834,-74.01322069,7186,3548,2452,9743,3443,13186,0,07/01/2018
178,427,Bus Slip & State St,40.701907,-74.013942,1674,672,916,1934,1328,3262,0,07/01/2018
179,432,E 7 St & Avenue A,40.72621788,-73.98379855,4428,1464,283,5781,394,6175,0,07/01/2018
180,433,E 13 St & Avenue A,40.72955361,-73.98057249,3789,1339,242,5024,346,5370,0,07/01/2018
181,435,W 21 St & 6 Ave,40.74173969,-73.99415556,7272,2894,500,10053,613,10666,0,07/01/2018
182,436,Hancock St & Bedford Ave,40.68216564,-73.95399026,384,161,105,574,76,650,0,07/01/2018
183,437,Macon St & Nostrand Ave,40.6809833854,-73.9500479759,1021,409,82,1422,90,1512,0,07/01/2018
184,438,St Marks Pl & 1 Ave,40.72779126,-73.98564945,3853,1569,317,5248,491,5739,0,07/01/2018
185,439,E 4 St & 2 Ave,40.726280700000004,-73.98978041,1,0,0,1,0,1,0,07/01/2018
186,440,E 45 St & 3 Ave,40.75255434,-73.97282625,2375,489,232,2779,317,3096,0,07/01/2018
187,441,E 52 St & 2 Ave,40.756014,-73.967416,2368,690,261,2934,385,3319,0,07/01/2018
188,442,W 27 St & 7 Ave,40.746646999999996,-73.993915,4206,1303,274,5383,400,5783,0,07/01/2018
189,443,Bedford Ave & S 9 St,40.70853074,-73.96408963,314,137,87,416,122,538,0,07/01/2018
190,445,E 10 St & Avenue A,40.72740794,-73.98142006,5256,1874,459,6995,594,7589,0,07/01/2018
191,446,W 24 St & 7 Ave,40.74487634,-73.99529885,4771,1566,451,6205,583,6788,0,07/01/2018
192,447,8 Ave & W 52 St,40.76370739,-73.9851615,3524,1015,565,4322,782,5104,0,07/01/2018
193,448,W 37 St & 10 Ave,40.75660359,-73.9979009,3463,1029,237,4270,459,4729,0,07/01/2018
194,450,W 49 St & 8 Ave,40.76227205,-73.98788205,4827,957,427,5663,548,6211,0,07/01/2018
195,453,W 22 St & 8 Ave,40.74475148,-73.99915362,4399,1507,318,5780,444,6224,0,07/01/2018
196,454,E 51 St & 1 Ave,40.75455731,-73.96592976,1556,528,189,1998,275,2273,0,07/01/2018
197,455,1 Ave & E 44 St,40.75001986,-73.96905301,2136,869,474,2921,558,3479,0,07/01/2018
198,456,E 53 St & Madison Ave,40.75971079999999,-73.97402311,4138,837,325,4918,382,5300,0,07/01/2018
199,457,Broadway & W 58 St,40.76695317,-73.98169333,4589,1906,1508,5799,2204,8003,0,07/01/2018
200,458,11 Ave & W 27 St,40.751396,-74.00522600000001,4808,1657,832,6090,1207,7297,0,07/01/2018
201,459,W 20 St & 11 Ave,40.746745000000004,-74.007756,6015,2319,1503,7710,2127,9837,0,07/01/2018
202,460,S 4 St & Wythe Ave,40.71285887,-73.96590294,2772,1543,532,3976,871,4847,0,07/01/2018
203,461,E 20 St & 2 Ave,40.73587678,-73.98205027,3404,1127,273,4357,447,4804,0,07/01/2018
204,462,W 22 St & 10 Ave,40.74691959,-74.00451887,4270,1481,645,5496,900,6396,0,07/01/2018
205,465,Broadway & W 41 St,40.75513557,-73.98658032,4939,1194,697,5874,956,6830,0,07/01/2018
206,466,W 25 St & 6 Ave,40.74395411,-73.99144871,4254,1253,302,5379,430,5809,0,07/01/2018
207,467,Dean St & 4 Ave,40.68312489,-73.97895137,1682,670,188,2402,138,2540,0,07/01/2018
208,468,Broadway & W 56 St,40.7652654,-73.98192338,3219,1059,476,4113,641,4754,0,07/01/2018
209,469,Broadway & W 53 St,40.76344058,-73.98268129,2705,785,380,3414,456,3870,0,07/01/2018
210,470,W 20 St & 8 Ave,40.74345335,-74.00004031,2681,871,251,3469,334,3803,0,07/01/2018
211,471,Grand St & Havemeyer St,40.71286844,-73.95698119,1224,712,181,1855,262,2117,0,07/01/2018
212,472,E 32 St & Park Ave,40.745712100000006,-73.98194829,4369,1161,330,5480,380,5860,0,07/01/2018
213,473,Rivington St & Chrystie St,40.72110063,-73.99192540000001,1866,785,348,2536,463,2999,0,07/01/2018
214,474,5 Ave & E 29 St,40.7451677,-73.98683077,3788,981,482,4589,662,5251,0,07/01/2018
215,476,E 31 St & 3 Ave,40.74394314,-73.97966069,3256,978,262,4213,283,4496,0,07/01/2018
216,477,W 41 St & 8 Ave,40.75640548,-73.9900262,7080,1086,516,7882,800,8682,0,07/01/2018
217,478,11 Ave & W 41 St,40.76030096,-73.99884222,3692,1056,402,4430,720,5150,0,07/01/2018
218,479,9 Ave & W 45 St,40.76019252,-73.9912551,4484,1221,549,5520,734,6254,0,07/01/2018
219,480,W 53 St & 10 Ave,40.76669671,-73.99061728,3012,728,269,3669,340,4009,0,07/01/2018
220,481,S 3 St & Bedford Ave,40.71260486,-73.96264403,1418,768,277,2054,409,2463,0,07/01/2018
221,482,W 15 St & 7 Ave,40.73935542,-73.99931783,4397,1214,325,5655,281,5936,0,07/01/2018
222,483,E 12 St & 3 Ave,40.73223272,-73.98889957,3911,1402,253,5161,405,5566,0,07/01/2018
223,484,W 44 St & 5 Ave,40.75500254,-73.98014437,2213,477,352,2524,518,3042,0,07/01/2018
224,485,W 37 St & 5 Ave,40.75038009,-73.98338988,2355,534,340,2771,458,3229,0,07/01/2018
225,486,Broadway & W 29 St,40.7462009,-73.98855723,3743,1069,531,4643,700,5343,0,07/01/2018
226,487,E 20 St & FDR Drive,40.73314259,-73.97573881,3522,1261,270,4631,422,5053,0,07/01/2018
227,490,8 Ave & W 33 St,40.751551,-73.993934,6504,1197,547,7413,835,8248,0,07/01/2018
228,491,E 24 St & Park Ave S,40.74096374,-73.98602213,4672,1175,280,5742,385,6127,0,07/01/2018
229,492,W 33 St & 7 Ave,40.75019995,-73.99093085,6455,934,679,7262,806,8068,0,07/01/2018
230,494,W 26 St & 8 Ave,40.74734825,-73.99723551,4360,1280,360,5551,449,6000,0,07/01/2018
231,495,W 47 St & 10 Ave,40.76269882,-73.99301222,3389,805,295,4100,389,4489,0,07/01/2018
232,496,E 16 St & 5 Ave,40.73726186,-73.99238967,3954,1525,291,5406,364,5770,0,07/01/2018
233,497,E 17 St & Broadway,40.73704984,-73.99009296,7569,2870,836,10224,1051,11275,0,07/01/2018
234,498,Broadway & W 32 St,40.74854862,-73.98808416,4504,971,438,5339,574,5913,0,07/01/2018
235,499,Broadway & W 60 St,40.76915505,-73.98191841,5400,2021,2083,6567,2937,9504,0,07/01/2018
236,500,Broadway & W 51 St,40.76228826,-73.98336183,2891,537,446,3274,600,3874,0,07/01/2018
237,501,FDR Drive & E 35 St,40.744219,-73.97121214,3388,992,710,4156,934,5090,0,07/01/2018
238,502,Henry St & Grand St,40.714215,-73.981346,2189,1014,190,3180,213,3393,0,07/01/2018
239,503,E 20 St & Park Ave,40.73827428,-73.98751968,3577,1138,224,4619,320,4939,0,07/01/2018
240,504,1 Ave & E 16 St,40.73221853,-73.98165557,4878,1802,285,6589,376,6965,0,07/01/2018
241,505,6 Ave & W 33 St,40.74901271,-73.98848395,5554,1732,1071,6971,1386,8357,0,07/01/2018
242,507,E 25 St & 2 Ave,40.73912601,-73.97973776,3536,1146,287,4584,385,4969,0,07/01/2018
243,508,W 46 St & 11 Ave,40.76341379,-73.99667444,2896,942,621,3587,872,4459,0,07/01/2018
244,509,9 Ave & W 22 St,40.7454973,-74.00197139,4788,1420,402,6039,571,6610,0,07/01/2018
245,513,W 56 St & 10 Ave,40.768254,-73.988639,2321,529,247,2781,316,3097,0,07/01/2018
246,514,12 Ave & W 40 St,40.76087502,-74.00277668,6247,2648,2595,7833,3657,11490,0,07/01/2018
247,515,W 43 St & 10 Ave,40.76009437,-73.99461843,3584,998,309,4428,463,4891,0,07/01/2018
248,516,E 47 St & 1 Ave,40.75206862,-73.96784384,1412,540,203,1856,299,2155,0,07/01/2018
249,517,Pershing Square South,40.751581,-73.97791,3219,708,344,3803,468,4271,0,07/01/2018
250,518,E 39 St & 2 Ave,40.74780373,-73.97344190000001,3940,1120,370,4877,553,5430,0,07/01/2018
251,519,Pershing Square North,40.751872999999996,-73.97770600000001,12169,1807,889,13676,1189,14865,0,07/01/2018
252,520,W 52 St & 5 Ave,40.75992262,-73.97648516,2513,622,538,2955,718,3673,0,07/01/2018
253,523,W 38 St & 8 Ave,40.75466591,-73.99138152,5056,1136,406,6048,550,6598,0,07/01/2018
254,524,W 43 St & 6 Ave,40.75527307,-73.98316936,3283,860,506,4000,649,4649,0,07/01/2018
255,525,W 34 St & 11 Ave,40.75594159,-74.0021163,2592,915,778,3103,1182,4285,0,07/01/2018
256,526,E 33 St & 5 Ave,40.74765947,-73.98490707,2682,659,466,3109,698,3807,0,07/01/2018
257,528,2 Ave & E 31 St,40.74290902,-73.97706058,3916,1187,341,4925,519,5444,0,07/01/2018
258,529,W 42 St & 8 Ave,40.75756989999999,-73.99098507,3830,546,446,4160,662,4822,0,07/01/2018
259,530,11 Ave & W 59 St,40.771522,-73.99054100000001,2925,1148,410,3879,604,4483,0,07/01/2018
260,531,Forsyth St & Broome St,40.71893904,-73.99266288,3334,1388,335,4575,482,5057,0,07/01/2018
261,532,S 5 Pl & S 5 St,40.710451,-73.960876,2134,925,1124,2678,1505,4183,0,07/01/2018
262,533,Broadway & W 38 St,40.75299641,-73.98721619,3068,868,395,3776,555,4331,0,07/01/2018
263,534,Water - Whitehall Plaza,40.70255065,-74.0127234,1579,391,358,1862,466,2328,0,07/01/2018
264,536,1 Ave & E 30 St,40.74144387,-73.97536082,2814,1182,286,4019,263,4282,0,07/01/2018
265,537,Lexington Ave & E 24 St,40.74025878,-73.98409214,4432,1200,295,5504,423,5927,0,07/01/2018
266,539,Metropolitan Ave & Bedford Ave,40.71534825,-73.96024116,3000,1559,388,4397,550,4947,0,07/01/2018
267,540,Lexington Ave & E 29 St,40.74311555376486,-73.98215353488922,3483,1121,219,4521,302,4823,0,07/01/2018
268,545,E 23 St & 1 Ave,40.736502,-73.97809472,4194,1297,266,5387,370,5757,0,07/01/2018
269,546,E 30 St & Park Ave S,40.74444921,-73.98303529,2743,811,322,3496,380,3876,0,07/01/2018
270,2000,Front St & Washington St,40.70255088,-73.98940236,2423,1124,779,3173,1153,4326,0,07/01/2018
271,2002,Wythe Ave & Metropolitan Ave,40.716887,-73.96319799999999,2439,1350,426,3592,623,4215,0,07/01/2018
