,station_id,station_name,station_latitude,station_longitude,gender_male,gender_female,gender_unknown,subscriber,customer,total_uses,station_type,date
0,72,W 52 St & 11 Ave,40.76727216,-73.99392888,1963,575,259,2430,367,2797,1,04/01/2018
1,79,Franklin St & W Broadway,40.71911552,-74.00666661,1442,476,174,1865,227,2092,1,04/01/2018
2,82,St James Pl & Pearl St,40.71117416,-74.00016545,465,243,63,710,61,771,1,04/01/2018
3,83,Atlantic Ave & Fort Greene Pl,40.68382604,-73.97632328,737,221,121,939,140,1079,1,04/01/2018
4,119,Park Ave & St Edwards St,40.69608941,-73.97803415,138,69,14,206,15,221,1,04/01/2018
5,120,Lexington Ave & Classon Ave,40.68676793,-73.95928168,484,233,69,715,71,786,1,04/01/2018
6,127,Barrow St & Hudson St,40.73172428,-74.00674436,3119,942,209,4001,269,4270,1,04/01/2018
7,128,MacDougal St & Prince St,40.72710258,-74.00297088,3193,1197,345,4319,416,4735,1,04/01/2018
8,143,Clinton St & Joralemon St,40.69239502,-73.99337909,1174,496,68,1676,62,1738,1,04/01/2018
9,144,Nassau St & Navy St,40.69839895,-73.98068914,275,132,158,363,202,565,1,04/01/2018
10,146,Hudson St & Reade St,40.71625008,-74.0091059,1418,520,117,1908,147,2055,1,04/01/2018
11,150,E 2 St & Avenue C,40.720873600000004,-73.98085795,1423,626,64,2027,86,2113,1,04/01/2018
12,151,Cleveland Pl & Spring St,40.72210378668603,-73.99724900722505,3516,1277,559,4716,636,5352,1,04/01/2018
13,152,Warren St & Church St,40.71473993,-74.00910627,226,87,26,308,31,339,1,04/01/2018
14,157,Henry St & Atlantic Ave,40.69089272,-73.99612349,836,438,150,1291,133,1424,1,04/01/2018
15,161,LaGuardia Pl & W 3 St,40.72917025,-73.99810231,3078,1157,351,4176,410,4586,1,04/01/2018
16,164,E 47 St & 2 Ave,40.75323098,-73.97032517,1340,430,143,1756,157,1913,1,04/01/2018
17,167,E 39 St & 3 Ave,40.7489006,-73.97604882,2377,445,170,2804,188,2992,1,04/01/2018
18,168,W 18 St & 6 Ave,40.73971301,-73.99456405,3825,1163,219,4935,272,5207,1,04/01/2018
19,173,Broadway & W 49 St,40.76068327096592,-73.98452728986742,3323,670,430,3792,631,4423,1,04/01/2018
20,174,E 25 St & 1 Ave,40.7381765,-73.97738662,2078,816,106,2935,65,3000,1,04/01/2018
21,195,Liberty St & Broadway,40.70905623,-74.01043382,2013,518,259,2452,338,2790,1,04/01/2018
22,212,W 16 St & The High Line,40.74334935,-74.00681753,2195,806,377,2876,502,3378,1,04/01/2018
23,216,Columbia Heights & Cranberry St,40.70037867,-73.99548059,364,146,211,479,242,721,1,04/01/2018
24,217,Old Fulton St,40.70277159,-73.99383605,875,439,976,1094,1196,2290,1,04/01/2018
25,223,W 13 St & 7 Ave,40.73781509,-73.99994661,66,18,2,84,2,86,1,04/01/2018
26,228,E 48 St & 3 Ave,40.7546011026,-73.971878855,1466,240,126,1662,170,1832,1,04/01/2018
27,229,Great Jones St,40.72743423,-73.99379025,4187,1238,243,5366,302,5668,1,04/01/2018
28,232,Cadman Plaza E & Tillary St,40.69597683,-73.99014892,531,228,370,562,567,1129,1,04/01/2018
29,236,St Marks Pl & 2 Ave,40.7284186,-73.98713956,2720,953,259,3625,307,3932,1,04/01/2018
30,237,E 11 St & 2 Ave,40.73047309,-73.98672378,2877,1084,149,3898,212,4110,1,04/01/2018
31,238,Bank St & Washington St,40.7361967,-74.00859207,426,204,39,614,55,669,1,04/01/2018
32,239,Willoughby St & Fleet St,40.69196566,-73.9813018,1468,583,69,2031,89,2120,1,04/01/2018
33,241,DeKalb Ave & S Portland Ave,40.68981035,-73.97493121,625,321,138,970,114,1084,1,04/01/2018
34,242,Carlton Ave & Flushing Ave,40.697787,-73.973736,694,182,112,841,147,988,1,04/01/2018
35,243,Fulton St & Rockwell Pl,40.688226,-73.979382,630,186,12,802,26,828,1,04/01/2018
36,244,Willoughby Ave & Hall St,40.69196035,-73.96536851,762,410,76,1160,88,1248,1,04/01/2018
37,245,Myrtle Ave & St Edwards St,40.69327018,-73.97703874,338,159,69,485,81,566,1,04/01/2018
38,247,Perry St & Bleecker St,40.73535398,-74.00483091,1682,538,219,2146,293,2439,1,04/01/2018
39,248,Laight St & Hudson St,40.72185379,-74.00771779,640,198,53,815,76,891,1,04/01/2018
40,249,Harrison St & Hudson St,40.71870987,-74.0090009,990,246,75,1228,83,1311,1,04/01/2018
41,251,Mott St & Prince St,40.72317958,-73.99480012,2383,927,335,3257,388,3645,1,04/01/2018
42,252,MacDougal St & Washington Sq,40.73226398,-73.99852205,1804,627,252,2381,302,2683,1,04/01/2018
43,253,W 13 St & 5 Ave,40.73543934,-73.99453948,139,52,16,194,13,207,1,04/01/2018
44,254,W 11 St & 6 Ave,40.73532427,-73.99800419,2920,1099,225,3991,253,4244,1,04/01/2018
45,257,Lispenard St & Broadway,40.71939226,-74.00247214,1402,385,143,1745,185,1930,1,04/01/2018
46,258,DeKalb Ave & Vanderbilt Ave,40.68940747,-73.96885458,972,411,98,1375,106,1481,1,04/01/2018
47,259,South St & Whitehall St,40.70122128,-74.01234218,1160,380,424,1403,561,1964,1,04/01/2018
48,260,Broad St & Bridge St,40.70365182,-74.01167797,828,221,116,1034,131,1165,1,04/01/2018
49,261,Johnson St & Gold St,40.69474881,-73.98362464,707,207,107,903,118,1021,1,04/01/2018
50,262,Washington Park,40.6917823,-73.97372990000001,608,264,68,879,61,940,1,04/01/2018
51,264,Maiden Ln & Pearl St,40.70706456,-74.00731853,1108,335,105,1442,106,1548,1,04/01/2018
52,265,Stanton St & Chrystie St,40.72229346,-73.99147535,2360,823,323,3093,413,3506,1,04/01/2018
53,266,Avenue D & E 8 St,40.72368361,-73.97574813,786,361,100,1188,59,1247,1,04/01/2018
54,267,Broadway & W 36 St,40.75097711,-73.98765428,2069,457,308,2398,436,2834,1,04/01/2018
55,268,Howard St & Centre St,40.71910537,-73.99973337,2167,718,246,2864,267,3131,1,04/01/2018
56,270,Adelphi St & Myrtle Ave,40.69308257,-73.97178913,978,441,32,1420,31,1451,1,04/01/2018
57,274,Lafayette Ave & Fort Greene Pl,40.68691865,-73.976682,919,353,101,1277,96,1373,1,04/01/2018
58,275,Washington Ave & Greene Ave,40.68650065,-73.96563307,550,180,32,732,30,762,1,04/01/2018
59,276,Duane St & Greenwich St,40.71748752,-74.0104554,1101,407,93,1491,110,1601,1,04/01/2018
60,278,Concord St & Bridge St,40.69766564,-73.98476437,337,175,78,470,120,590,1,04/01/2018
61,279,Peck Slip & Front St,40.707873,-74.00166999999999,1469,554,385,1888,520,2408,1,04/01/2018
62,280,E 10 St & 5 Ave,40.73331967,-73.99510132,356,137,30,500,23,523,1,04/01/2018
63,281,Grand Army Plaza & Central Park S,40.764397100000004,-73.97371465,3069,1054,3021,3720,3424,7144,1,04/01/2018
64,282,Kent Ave & S 11 St,40.7076449441757,-73.96841526031494,636,395,357,954,434,1388,1,04/01/2018
65,284,Greenwich Ave & 8 Ave,40.7390169121,-74.0026376103,1424,424,49,1847,50,1897,1,04/01/2018
66,285,Broadway & E 14 St,40.73454567,-73.99074142,5116,1490,440,6522,524,7046,1,04/01/2018
67,289,Monroe St & Classon Ave,40.684568299999995,-73.95881081,311,235,54,547,53,600,1,04/01/2018
68,291,Madison St & Montgomery St,40.713126,-73.984844,964,317,72,1291,62,1353,1,04/01/2018
69,293,Lafayette St & E 8 St,40.73020660529954,-73.99102628231049,4346,1255,372,5583,390,5973,1,04/01/2018
70,295,Pike St & E Broadway,40.71406667,-73.99293911,1345,518,178,1896,145,2041,1,04/01/2018
71,296,Division St & Bowery,40.71413089,-73.99704679999999,1494,526,228,1987,261,2248,1,04/01/2018
72,297,E 15 St & 3 Ave,40.734232,-73.986923,2946,993,184,3963,160,4123,1,04/01/2018
73,301,E 2 St & Avenue B,40.72217444,-73.98368779,2022,904,155,2852,229,3081,1,04/01/2018
74,302,Avenue D & E 3 St,40.72082834,-73.97793172,1265,517,49,1770,61,1831,1,04/01/2018
75,303,Mercer St & Spring St,40.72362738,-73.99949601,2127,673,272,2683,389,3072,1,04/01/2018
76,304,Broadway & Battery Pl,40.70463334,-74.01361706,2022,650,595,2564,703,3267,1,04/01/2018
77,305,E 58 St & 3 Ave,40.76095756,-73.96724467,2425,532,194,2905,246,3151,1,04/01/2018
78,306,Cliff St & Fulton St_1,40.70823502,-74.00530063,1197,309,104,1493,117,1610,1,04/01/2018
79,307,Canal St & Rutgers St,40.71427487,-73.98990025,2571,960,232,3549,214,3763,1,04/01/2018
80,308,St James Pl & Oliver St,40.71307916,-73.99851193,1185,324,235,1496,248,1744,1,04/01/2018
81,309,Murray St & West St,40.7149787,-74.013012,1579,502,375,1972,484,2456,1,04/01/2018
82,310,State St & Smith St,40.68926942,-73.98912867,899,314,73,1218,68,1286,1,04/01/2018
83,311,Norfolk St & Broome St,40.7172274,-73.98802084,1525,585,212,2038,284,2322,1,04/01/2018
84,312,Allen St & Stanton St,40.722055,-73.989111,2464,923,333,3300,420,3720,1,04/01/2018
85,313,Washington Ave & Park Ave,40.69610226,-73.96751037,630,231,98,844,115,959,1,04/01/2018
86,314,Cadman Plaza West & Montague St,40.69383,-73.990539,982,356,145,1358,125,1483,1,04/01/2018
87,315,South St & Gouverneur Ln,40.70355377,-74.00670227,2041,811,597,2692,757,3449,1,04/01/2018
88,316,Fulton St & William St,40.70955958,-74.00653609,1064,313,142,1340,179,1519,1,04/01/2018
89,317,E 6 St & Avenue B,40.72453734,-73.98185424,2042,875,95,2886,126,3012,1,04/01/2018
90,319,Fulton St & Broadway,40.711065999999995,-74.009447,2075,391,348,2395,419,2814,1,04/01/2018
91,320,Leonard St & Church St,40.717571,-74.005549,1325,353,93,1638,133,1771,1,04/01/2018
92,321,Cadman Plaza E & Red Cross Pl,40.69991755,-73.98971773,898,353,630,1145,736,1881,1,04/01/2018
93,322,Clinton St & Tillary St,40.696191999999996,-73.991218,659,206,316,804,377,1181,1,04/01/2018
94,323,Lawrence St & Willoughby St,40.69236178,-73.98631746,1589,384,105,1929,149,2078,1,04/01/2018
95,324,DeKalb Ave & Hudson Ave,40.689888,-73.981013,1012,314,113,1316,123,1439,1,04/01/2018
96,325,E 19 St & 3 Ave,40.73624527,-73.98473765,2411,717,101,3104,125,3229,1,04/01/2018
97,326,E 11 St & 1 Ave,40.72953837,-73.98426726,2500,869,248,3350,267,3617,1,04/01/2018
98,327,Vesey Pl & River Terrace,40.715337899999994,-74.01658354,3138,858,538,3899,635,4534,1,04/01/2018
99,328,Watts St & Greenwich St,40.72405549,-74.00965965,1786,544,194,2244,280,2524,1,04/01/2018
100,330,Reade St & Broadway,40.71450451,-74.00562789,1394,342,129,1674,191,1865,1,04/01/2018
101,331,Pike St & Monroe St,40.71173107,-73.99193043,854,307,147,1152,156,1308,1,04/01/2018
102,332,Cherry St,40.71219906,-73.97948148,909,437,190,1272,264,1536,1,04/01/2018
103,334,W 20 St & 7 Ave,40.74238787,-73.99726235,2333,627,102,2928,134,3062,1,04/01/2018
104,335,Washington Pl & Broadway,40.72903917,-73.99404649,2565,691,218,3250,224,3474,1,04/01/2018
105,336,Sullivan St & Washington Sq,40.73047747,-73.99906065,2465,763,274,3149,353,3502,1,04/01/2018
106,337,Old Slip & Front St,40.703799200000006,-74.00838676,933,247,66,1154,92,1246,1,04/01/2018
107,339,Avenue D & E 12 St,40.72580614,-73.97422494,633,270,44,896,51,947,1,04/01/2018
108,340,Madison St & Clinton St,40.71269042,-73.98776323,855,460,158,1369,104,1473,1,04/01/2018
109,341,Stanton St & Mangin St,40.71782143,-73.97628939,450,200,29,651,28,679,1,04/01/2018
110,342,Columbia St & Rivington St,40.71739973,-73.98016555,1087,562,72,1648,73,1721,1,04/01/2018
111,343,Clinton Ave & Flushing Ave,40.69794,-73.96986848,433,123,230,523,263,786,1,04/01/2018
112,344,Monroe St & Bedford Ave,40.6851443,-73.95380904,477,317,36,794,36,830,1,04/01/2018
113,345,W 13 St & 6 Ave,40.73649403,-73.99704374,305,68,13,371,15,386,1,04/01/2018
114,346,Bank St & Hudson St,40.73652889,-74.00618026,2438,1073,274,3429,356,3785,1,04/01/2018
115,347,Greenwich St & W Houston St,40.728846000000004,-74.00859100000001,2813,758,267,3511,327,3838,1,04/01/2018
116,349,Rivington St & Ridge St,40.71850211,-73.98329859,1121,348,111,1458,122,1580,1,04/01/2018
117,350,Clinton St & Grand St,40.71559509,-73.9870295,1453,578,165,2022,174,2196,1,04/01/2018
118,351,Front St & Maiden Ln,40.70530954,-74.00612572,1193,295,154,1446,196,1642,1,04/01/2018
119,353,S Portland Ave & Hanson Pl,40.68539567,-73.97431458,522,213,55,740,50,790,1,04/01/2018
120,354,Emerson Pl & Myrtle Ave,40.69363137,-73.96223558,690,285,122,983,114,1097,1,04/01/2018
121,355,Bayard St & Baxter St,40.71602118,-73.99974372,1779,635,216,2366,264,2630,1,04/01/2018
122,356,Bialystoker Pl & Delancey St,40.71622644,-73.98261206,1123,510,119,1616,136,1752,1,04/01/2018
123,357,E 11 St & Broadway,40.73261787,-73.99158043,1508,521,151,1997,183,2180,1,04/01/2018
124,358,Christopher St & Greenwich St,40.73291553,-74.00711384,4177,1358,464,5410,589,5999,1,04/01/2018
125,359,E 47 St & Park Ave,40.75510267,-73.97498696,4715,545,182,5270,172,5442,1,04/01/2018
126,360,William St & Pine St,40.70717936,-74.00887308,1062,270,91,1284,139,1423,1,04/01/2018
127,361,Allen St & Hester St,40.71605866,-73.99190759,2155,909,136,3033,167,3200,1,04/01/2018
128,362,Broadway & W 37 St,40.75172632,-73.98753523,1380,280,129,1577,212,1789,1,04/01/2018
129,363,West Thames St,40.70834698,-74.01713445,1770,663,299,2379,353,2732,1,04/01/2018
130,364,Lafayette Ave & Classon Ave,40.68900443,-73.96023854,781,299,83,1062,101,1163,1,04/01/2018
131,365,Fulton St & Grand Ave,40.68223166,-73.9614583,557,269,50,828,48,876,1,04/01/2018
132,366,Clinton Ave & Myrtle Ave,40.693261,-73.968896,1079,474,64,1536,81,1617,1,04/01/2018
133,368,Carmine St & 6 Ave,40.73038599,-74.00214988,4167,1356,401,5382,542,5924,1,04/01/2018
134,369,Washington Pl & 6 Ave,40.73224119,-74.00026394,1847,619,214,2447,233,2680,1,04/01/2018
135,372,Franklin Ave & Myrtle Ave,40.694546087246025,-73.95801365375519,391,94,92,449,128,577,1,04/01/2018
136,373,Willoughby Ave & Walworth St,40.69331716,-73.95381995,302,88,31,382,39,421,1,04/01/2018
137,376,John St & William St,40.70862144,-74.00722156,1214,287,75,1472,104,1576,1,04/01/2018
138,377,6 Ave & Canal St,40.72243797,-74.00566443,2086,533,281,2536,364,2900,1,04/01/2018
139,379,W 31 St & 7 Ave,40.749156,-73.9916,4166,753,250,4888,281,5169,1,04/01/2018
140,380,W 4 St & 7 Ave S,40.73401143,-74.00293877,822,228,74,1044,80,1124,1,04/01/2018
141,382,University Pl & E 14 St,40.73492695,-73.99200509,4542,1555,370,6015,452,6467,1,04/01/2018
142,383,Greenwich Ave & Charles St,40.735238,-74.000271,3386,963,292,4268,373,4641,1,04/01/2018
143,386,Centre St & Worth St,40.71494807,-74.00234482,1174,361,335,1460,410,1870,1,04/01/2018
144,387,Centre St & Chambers St,40.71273266,-74.0046073,2705,1017,1848,3242,2328,5570,1,04/01/2018
145,388,W 26 St & 10 Ave,40.749717753,-74.002950346,2037,710,206,2712,241,2953,1,04/01/2018
146,389,Broadway & Berry St,40.71044554,-73.96525063,935,476,189,1402,198,1600,1,04/01/2018
147,390,Duffield St & Willoughby St,40.69221589,-73.9842844,943,273,81,1183,114,1297,1,04/01/2018
148,391,Clark St & Henry St,40.69760127,-73.99344559,1500,527,145,2013,159,2172,1,04/01/2018
149,392,Jay St & Tech Pl,40.695065,-73.987167,1075,402,378,1410,445,1855,1,04/01/2018
150,393,E 5 St & Avenue C,40.72299208,-73.97995466,1181,451,40,1598,74,1672,1,04/01/2018
151,394,E 9 St & Avenue C,40.72521311,-73.97768752,1854,756,118,2632,96,2728,1,04/01/2018
152,396,Lefferts Pl & Franklin Ave,40.680342423,-73.9557689392,444,122,69,579,56,635,1,04/01/2018
153,397,Fulton St & Clermont Ave,40.68415748,-73.96922273,357,194,58,558,51,609,1,04/01/2018
154,398,Atlantic Ave & Furman St,40.69165183,-73.99997859999999,811,389,478,1137,541,1678,1,04/01/2018
155,399,Lafayette Ave & St James Pl,40.68851534,-73.9647628,741,378,74,1127,66,1193,1,04/01/2018
156,400,Pitt St & Stanton St,40.71926081,-73.98178024,507,138,50,645,50,695,1,04/01/2018
157,401,Allen St & Rivington St,40.72019576,-73.98997825,2344,868,305,3161,356,3517,1,04/01/2018
158,402,Broadway & E 22 St,40.740343200000005,-73.98955109,6343,1878,526,8030,717,8747,1,04/01/2018
159,403,E 2 St & 2 Ave,40.72502876,-73.99069656,2259,737,182,2962,216,3178,1,04/01/2018
160,405,Washington St & Gansevoort St,40.739323,-74.008119,2508,1074,791,3329,1044,4373,1,04/01/2018
161,406,Hicks St & Montague St,40.69512845,-73.99595065,1067,495,125,1535,152,1687,1,04/01/2018
162,407,Henry St & Poplar St,40.700469,-73.991454,647,193,117,798,159,957,1,04/01/2018
163,408,Market St & Cherry St,40.71076228,-73.99400398,842,250,152,1130,114,1244,1,04/01/2018
164,409,DeKalb Ave & Skillman St,40.6906495,-73.95643107,336,180,117,548,85,633,1,04/01/2018
165,410,Suffolk St & Stanton St,40.72066442,-73.98517977,2616,857,218,3335,356,3691,1,04/01/2018
166,411,E 6 St & Avenue D,40.72228087,-73.97668709,1045,467,72,1485,99,1584,1,04/01/2018
167,412,Forsyth St & Canal St,40.715815500000005,-73.99422366,1943,808,414,2689,476,3165,1,04/01/2018
168,414,Pearl St & Anchorage Pl,40.70281858,-73.98765762,833,251,199,1018,265,1283,1,04/01/2018
169,415,Pearl St & Hanover Square,40.7047177,-74.00926027,1182,302,150,1471,163,1634,1,04/01/2018
170,416,Cumberland St & Lafayette Ave,40.68753406,-73.97265183,811,301,58,1108,62,1170,1,04/01/2018
171,417,Barclay St & Church St,40.71291224,-74.01020234,2731,643,260,3286,348,3634,1,04/01/2018
172,418,Front St & Gold St,40.70224,-73.982578,579,228,104,820,91,911,1,04/01/2018
173,419,Carlton Ave & Park Ave,40.69580705,-73.97355569,394,192,30,579,37,616,1,04/01/2018
174,420,Clermont Ave & Lafayette Ave,40.68764484,-73.96968902,586,231,61,826,52,878,1,04/01/2018
175,421,Clermont Ave & Park Ave,40.69573398,-73.97129668,284,170,28,448,34,482,1,04/01/2018
176,422,W 59 St & 10 Ave,40.770513,-73.988038,1562,522,144,2057,171,2228,1,04/01/2018
177,423,W 54 St & 9 Ave,40.76584941,-73.98690506,2038,461,178,2430,247,2677,1,04/01/2018
178,426,West St & Chambers St,40.71754834,-74.01322069,3850,1631,869,5221,1129,6350,1,04/01/2018
179,427,Bus Slip & State St,40.701907,-74.013942,945,324,421,1103,587,1690,1,04/01/2018
180,432,E 7 St & Avenue A,40.72621788,-73.98379855,4172,1347,235,5490,264,5754,1,04/01/2018
181,433,E 13 St & Avenue A,40.72955361,-73.98057249,3094,919,159,4000,172,4172,1,04/01/2018
182,435,W 21 St & 6 Ave,40.74173969,-73.99415556,5941,2045,283,7943,326,8269,1,04/01/2018
183,436,Hancock St & Bedford Ave,40.68216564,-73.95399026,296,135,79,445,65,510,1,04/01/2018
184,437,Macon St & Nostrand Ave,40.6809833854,-73.9500479759,905,248,72,1174,51,1225,1,04/01/2018
185,438,St Marks Pl & 1 Ave,40.72779126,-73.98564945,2650,1045,218,3663,250,3913,1,04/01/2018
186,439,E 4 St & 2 Ave,40.726280700000004,-73.98978041,2838,1160,228,3969,257,4226,1,04/01/2018
187,440,E 45 St & 3 Ave,40.75255434,-73.97282625,1749,414,148,2166,145,2311,1,04/01/2018
188,441,E 52 St & 2 Ave,40.756014,-73.967416,2112,563,225,2642,258,2900,1,04/01/2018
189,442,W 27 St & 7 Ave,40.746646999999996,-73.993915,3316,998,206,4271,249,4520,1,04/01/2018
190,443,Bedford Ave & S 9 St,40.70853074,-73.96408963,228,105,77,321,89,410,1,04/01/2018
191,445,E 10 St & Avenue A,40.72740794,-73.98142006,3155,976,254,4115,270,4385,1,04/01/2018
192,446,W 24 St & 7 Ave,40.74487634,-73.99529885,3481,952,190,4418,205,4623,1,04/01/2018
193,447,8 Ave & W 52 St,40.76370739,-73.9851615,2842,506,282,3293,337,3630,1,04/01/2018
194,448,W 37 St & 10 Ave,40.75660359,-73.9979009,2251,589,102,2780,162,2942,1,04/01/2018
195,450,W 49 St & 8 Ave,40.76227205,-73.98788205,3667,618,179,4222,242,4464,1,04/01/2018
196,453,W 22 St & 8 Ave,40.74475148,-73.99915362,3342,969,266,4273,304,4577,1,04/01/2018
197,454,E 51 St & 1 Ave,40.75455731,-73.96592976,1098,316,103,1367,150,1517,1,04/01/2018
198,455,1 Ave & E 44 St,40.75001986,-73.96905301,1533,466,277,1979,297,2276,1,04/01/2018
199,456,E 53 St & Madison Ave,40.75971079999999,-73.97402311,1709,307,146,1981,181,2162,1,04/01/2018
200,457,Broadway & W 58 St,40.76695317,-73.98169333,3917,1204,734,4839,1016,5855,1,04/01/2018
201,458,11 Ave & W 27 St,40.751396,-74.00522600000001,2512,778,398,3153,535,3688,1,04/01/2018
202,459,W 20 St & 11 Ave,40.746745000000004,-74.007756,3706,1114,449,4678,591,5269,1,04/01/2018
203,460,S 4 St & Wythe Ave,40.71285887,-73.96590294,1497,741,276,2176,338,2514,1,04/01/2018
204,461,E 20 St & 2 Ave,40.73587678,-73.98205027,2677,864,158,3514,185,3699,1,04/01/2018
205,462,W 22 St & 10 Ave,40.74691959,-74.00451887,3581,1180,344,4660,445,5105,1,04/01/2018
206,465,Broadway & W 41 St,40.75513557,-73.98658032,3982,785,439,4597,609,5206,1,04/01/2018
207,466,W 25 St & 6 Ave,40.74395411,-73.99144871,3069,827,198,3883,211,4094,1,04/01/2018
208,467,Dean St & 4 Ave,40.68312489,-73.97895137,1288,418,111,1705,112,1817,1,04/01/2018
209,468,Broadway & W 56 St,40.7652654,-73.98192338,2651,681,297,3230,399,3629,1,04/01/2018
210,469,Broadway & W 53 St,40.76344058,-73.98268129,2008,411,217,2365,271,2636,1,04/01/2018
211,470,W 20 St & 8 Ave,40.74345335,-74.00004031,1971,687,113,2653,118,2771,1,04/01/2018
212,471,Grand St & Havemeyer St,40.71286844,-73.95698119,687,284,146,987,130,1117,1,04/01/2018
213,472,E 32 St & Park Ave,40.745712100000006,-73.98194829,3448,717,206,4228,143,4371,1,04/01/2018
214,473,Rivington St & Chrystie St,40.72110063,-73.99192540000001,1253,571,250,1773,301,2074,1,04/01/2018
215,474,5 Ave & E 29 St,40.7451677,-73.98683077,2932,682,263,3522,355,3877,1,04/01/2018
216,476,E 31 St & 3 Ave,40.74394314,-73.97966069,2604,699,130,3276,157,3433,1,04/01/2018
217,477,W 41 St & 8 Ave,40.75640548,-73.9900262,5585,860,272,6370,347,6717,1,04/01/2018
218,478,11 Ave & W 41 St,40.76030096,-73.99884222,2448,579,205,2947,285,3232,1,04/01/2018
219,479,9 Ave & W 45 St,40.76019252,-73.9912551,3253,749,310,3934,378,4312,1,04/01/2018
220,480,W 53 St & 10 Ave,40.76669671,-73.99061728,2200,535,130,2680,185,2865,1,04/01/2018
221,481,S 3 St & Bedford Ave,40.71260486,-73.96264403,1027,425,204,1434,222,1656,1,04/01/2018
222,482,W 15 St & 7 Ave,40.73935542,-73.99931783,4014,1156,306,5180,296,5476,1,04/01/2018
223,483,E 12 St & 3 Ave,40.73223272,-73.98889957,3238,877,215,4089,241,4330,1,04/01/2018
224,484,W 44 St & 5 Ave,40.75500254,-73.98014437,2439,426,230,2814,281,3095,1,04/01/2018
225,485,W 37 St & 5 Ave,40.75038009,-73.98338988,2450,513,235,2885,313,3198,1,04/01/2018
226,486,Broadway & W 29 St,40.7462009,-73.98855723,2960,848,330,3665,473,4138,1,04/01/2018
227,487,E 20 St & FDR Drive,40.73314259,-73.97573881,2543,948,135,3442,184,3626,1,04/01/2018
228,490,8 Ave & W 33 St,40.751551,-73.993934,5132,967,327,6022,404,6426,1,04/01/2018
229,491,E 24 St & Park Ave S,40.74096374,-73.98602213,3532,760,229,4260,261,4521,1,04/01/2018
230,492,W 33 St & 7 Ave,40.75019995,-73.99093085,4269,829,345,5026,417,5443,1,04/01/2018
231,494,W 26 St & 8 Ave,40.74734825,-73.99723551,2929,807,219,3724,231,3955,1,04/01/2018
232,495,W 47 St & 10 Ave,40.76269882,-73.99301222,2292,491,206,2761,228,2989,1,04/01/2018
233,496,E 16 St & 5 Ave,40.73726186,-73.99238967,3219,1079,234,4236,296,4532,1,04/01/2018
234,497,E 17 St & Broadway,40.73704984,-73.99009296,6097,2099,569,7991,774,8765,1,04/01/2018
235,498,Broadway & W 32 St,40.74854862,-73.98808416,3193,847,309,3963,386,4349,1,04/01/2018
236,499,Broadway & W 60 St,40.76915505,-73.98191841,4450,1616,977,5768,1275,7043,1,04/01/2018
237,500,Broadway & W 51 St,40.76228826,-73.98336183,1960,351,253,2224,340,2564,1,04/01/2018
238,501,FDR Drive & E 35 St,40.744219,-73.97121214,2425,634,320,2961,418,3379,1,04/01/2018
239,502,Henry St & Grand St,40.714215,-73.981346,1569,855,74,2406,92,2498,1,04/01/2018
240,503,E 20 St & Park Ave,40.73827428,-73.98751968,900,284,72,1156,100,1256,1,04/01/2018
241,504,1 Ave & E 16 St,40.73221853,-73.98165557,3660,1327,138,4992,133,5125,1,04/01/2018
242,505,6 Ave & W 33 St,40.74901271,-73.98848395,4058,913,459,4858,572,5430,1,04/01/2018
243,507,E 25 St & 2 Ave,40.73912601,-73.97973776,2897,908,266,3881,190,4071,1,04/01/2018
244,508,W 46 St & 11 Ave,40.76341379,-73.99667444,1958,478,281,2373,344,2717,1,04/01/2018
245,509,9 Ave & W 22 St,40.7454973,-74.00197139,3243,935,256,4158,276,4434,1,04/01/2018
246,513,W 56 St & 10 Ave,40.768254,-73.988639,1723,250,145,1966,152,2118,1,04/01/2018
247,514,12 Ave & W 40 St,40.76087502,-74.00277668,2941,1429,1387,3887,1870,5757,1,04/01/2018
248,515,W 43 St & 10 Ave,40.76009437,-73.99461843,2408,595,169,2966,206,3172,1,04/01/2018
249,516,E 47 St & 1 Ave,40.75206862,-73.96784384,950,320,106,1250,126,1376,1,04/01/2018
250,517,Pershing Square South,40.751581,-73.97791,3426,533,144,3937,166,4103,1,04/01/2018
251,518,E 39 St & 2 Ave,40.74780373,-73.97344190000001,3048,684,223,3722,233,3955,1,04/01/2018
252,519,Pershing Square North,40.751872999999996,-73.97770600000001,10010,1458,558,11391,635,12026,1,04/01/2018
253,520,W 52 St & 5 Ave,40.75992262,-73.97648516,2380,364,305,2640,409,3049,1,04/01/2018
254,522,E 51 St & Lexington Ave,40.75714758,-73.97207836,1748,329,147,2039,185,2224,1,04/01/2018
255,523,W 38 St & 8 Ave,40.75466591,-73.99138152,4553,1118,289,5583,377,5960,1,04/01/2018
256,524,W 43 St & 6 Ave,40.75527307,-73.98316936,2317,458,253,2715,313,3028,1,04/01/2018
257,525,W 34 St & 11 Ave,40.75594159,-74.0021163,1793,468,501,2082,680,2762,1,04/01/2018
258,526,E 33 St & 5 Ave,40.74765947,-73.98490707,2513,530,310,2986,367,3353,1,04/01/2018
259,527,E 33 St & 2 Ave,40.744023,-73.976056,3167,907,212,4026,260,4286,1,04/01/2018
260,528,2 Ave & E 31 St,40.74290902,-73.97706058,2250,714,137,2952,149,3101,1,04/01/2018
261,529,W 42 St & 8 Ave,40.75756989999999,-73.99098507,2816,595,245,3327,329,3656,1,04/01/2018
262,530,11 Ave & W 59 St,40.771522,-73.99054100000001,2594,752,244,3267,323,3590,1,04/01/2018
263,531,Forsyth St & Broome St,40.71893904,-73.99266288,2664,1019,236,3629,290,3919,1,04/01/2018
264,532,S 5 Pl & S 5 St,40.710451,-73.960876,1473,661,859,1905,1088,2993,1,04/01/2018
265,533,Broadway & W 38 St,40.75299641,-73.98721619,1819,409,205,2169,264,2433,1,04/01/2018
266,534,Water - Whitehall Plaza,40.70255065,-74.0127234,966,251,273,1169,321,1490,1,04/01/2018
267,536,1 Ave & E 30 St,40.74144387,-73.97536082,2471,881,217,3403,166,3569,1,04/01/2018
268,537,Lexington Ave & E 24 St,40.74025878,-73.98409214,3674,1104,137,4745,170,4915,1,04/01/2018
269,539,Metropolitan Ave & Bedford Ave,40.71534825,-73.96024116,1815,723,278,2476,340,2816,1,04/01/2018
270,540,Lexington Ave & E 29 St,40.74311555376486,-73.98215353488922,2603,800,142,3371,174,3545,1,04/01/2018
271,545,E 23 St & 1 Ave,40.736502,-73.97809472,3020,847,177,3855,189,4044,1,04/01/2018
272,546,E 30 St & Park Ave S,40.74444921,-73.98303529,2129,729,176,2850,184,3034,1,04/01/2018
273,2000,Front St & Washington St,40.70255088,-73.98940236,1457,530,473,1857,603,2460,1,04/01/2018
274,2001,Sands St & Navy St,40.699773,-73.979927,285,80,47,353,59,412,1,04/01/2018
275,2002,Wythe Ave & Metropolitan Ave,40.716887,-73.96319799999999,1497,623,295,2048,367,2415,1,04/01/2018
276,2003,1 Ave & E 18 St,40.73381219196632,-73.9805442094803,2522,870,153,3344,201,3545,1,04/01/2018
277,2005,Railroad Ave & Kay Ave,40.70531194,-73.97100056,87,14,7,99,9,108,1,04/01/2018
278,2006,Central Park S & 6 Ave,40.76590936,-73.97634151,3002,1258,2278,3248,3290,6538,1,04/01/2018
279,2008,Little West St & 1 Pl,40.70569254,-74.01677685,2066,806,769,2616,1025,3641,1,04/01/2018
280,2009,Catherine St & Monroe St,40.71117444,-73.99682619,897,435,111,1327,116,1443,1,04/01/2018
281,2010,Grand St & Greene St,40.72165481,-74.00234737,1962,621,248,2532,299,2831,1,04/01/2018
282,2012,E 27 St & 1 Ave,40.739445,-73.97680600000001,1702,581,154,2344,93,2437,1,04/01/2018
283,2021,W 45 St & 8 Ave,40.75929124,-73.98859651,2774,564,354,3220,472,3692,1,04/01/2018
284,2022,E 60 St & York Ave,40.759107,-73.959223,428,195,78,584,117,701,1,04/01/2018
285,2023,E 55 St & Lexington Ave,40.75968085,-73.97031366,1319,216,130,1566,99,1665,1,04/01/2018
286,3002,South End Ave & Liberty St,40.711512,-74.01575600000001,3200,1240,806,4162,1084,5246,1,04/01/2018
287,3016,Kent Ave & N 7 St,40.72036775298455,-73.96165072917937,1806,837,684,2466,861,3327,1,04/01/2018
288,3041,Kingston Ave & Herkimer St,40.67890679,-73.94142771,211,111,23,314,31,345,1,04/01/2018
289,3042,Fulton St & Utica Ave,40.6794268,-73.92989109999999,226,114,75,325,90,415,1,04/01/2018
290,3043,Lewis Ave & Decatur St,40.6814598,-73.934903,90,62,29,145,36,181,1,04/01/2018
291,3044,Albany Ave & Fulton St,40.6800105,-73.938475,91,53,16,130,30,160,1,04/01/2018
292,3046,Marcus Garvey Blvd & Macon St,40.682601,-73.938037,233,137,45,360,55,415,1,04/01/2018
293,3047,Halsey St & Tompkins Ave,40.682368700000005,-73.944118,318,155,48,473,48,521,1,04/01/2018
294,3048,Putnam Ave & Nostrand Ave,40.684020000000004,-73.94977,225,102,25,320,32,352,1,04/01/2018
295,3049,Cambridge Pl & Gates Ave,40.68488,-73.96304,339,152,36,506,21,527,1,04/01/2018
296,3050,Putnam Ave & Throop Ave,40.6851532,-73.94111,368,137,28,499,34,533,1,04/01/2018
297,3052,Lewis Ave & Madison St,40.686312,-73.935775,307,144,36,443,44,487,1,04/01/2018
298,3053,Marcy Ave & Lafayette Ave,40.6900815,-73.94791500000001,125,63,54,189,53,242,1,04/01/2018
299,3054,Greene Ave & Throop Ave,40.6894932,-73.942061,277,104,35,373,43,416,1,04/01/2018
300,3055,Greene Ave & Nostrand Ave,40.68833370000001,-73.950916,226,95,52,322,51,373,1,04/01/2018
301,3056,Kosciuszko St & Nostrand Ave,40.69072549,-73.95133465,199,138,48,326,59,385,1,04/01/2018
302,3057,Kosciuszko St & Tompkins Ave,40.69128258,-73.9452416,272,129,47,413,35,448,1,04/01/2018
303,3058,Lewis Ave & Kosciuszko St,40.69237074,-73.93705428,212,122,33,304,63,367,1,04/01/2018
304,3059,Pulaski St & Marcus Garvey Blvd,40.693398200000004,-73.939877,161,47,37,214,31,245,1,04/01/2018
305,3060,Willoughby Ave & Tompkins Ave,40.69425403,-73.94626915,241,109,21,339,32,371,1,04/01/2018
306,3061,Throop Ave & Myrtle Ave,40.69622937,-73.94371094,128,41,16,163,22,185,1,04/01/2018
307,3062,Myrtle Ave & Marcy Ave,40.69539817,-73.94954908,329,111,66,445,61,506,1,04/01/2018
308,3063,Nostrand Ave & Myrtle Ave,40.69527008,-73.95238108,191,51,59,249,52,301,1,04/01/2018
309,3064,Myrtle Ave & Lewis Ave,40.69681963,-73.93756926,654,255,149,899,159,1058,1,04/01/2018
310,3065,Union Ave & Wallabout St,40.70029511,-73.95032283,130,74,41,199,46,245,1,04/01/2018
311,3066,Tompkins Ave & Hopkins St,40.69957608,-73.94708417,290,75,22,359,28,387,1,04/01/2018
312,3067,Broadway & Whipple St,40.7016657,-73.9437303,335,102,65,433,69,502,1,04/01/2018
313,3068,Humboldt St & Varet St,40.7031724,-73.940636,273,116,136,385,140,525,1,04/01/2018
314,3069,Lorimer St & Broadway,40.70411791,-73.94818595,231,64,39,292,42,334,1,04/01/2018
315,3070,McKibbin St & Manhattan Ave,40.70510918,-73.94407279,182,83,14,256,23,279,1,04/01/2018
316,3071,Boerum St & Broadway,40.70538077,-73.94976519,251,121,37,371,38,409,1,04/01/2018
317,3072,Leonard St & Boerum St,40.70583339,-73.94644578,183,89,20,264,28,292,1,04/01/2018
318,3073,Division Ave & Hooper St,40.70691254,-73.95441667,323,96,39,401,57,458,1,04/01/2018
319,3074,Montrose Ave & Bushwick Ave,40.70767788,-73.94016171,673,282,147,917,185,1102,1,04/01/2018
320,3075,Division Ave & Marcy Ave,40.70708701,-73.95796783,116,42,63,158,63,221,1,04/01/2018
321,3076,Scholes St & Manhattan Ave,40.70870368,-73.9448625,456,202,42,645,55,700,1,04/01/2018
322,3077,Stagg St & Union Ave,40.70877084,-73.95095259,626,361,13,968,32,1000,1,04/01/2018
323,3078,Broadway & Roebling St,40.70924826276157,-73.96063148975372,775,298,118,1051,140,1191,1,04/01/2018
324,3080,S 4 St & Rodney St,40.709340000000005,-73.95608,399,197,68,571,93,664,1,04/01/2018
325,3081,Graham Ave & Grand St,40.711863,-73.944024,515,165,49,674,55,729,1,04/01/2018
326,3082,Hope St & Union Ave,40.71167351,-73.95141312,710,304,113,980,147,1127,1,04/01/2018
327,3083,Bushwick Ave & Powers St,40.71247661,-73.94100005,411,221,41,617,56,673,1,04/01/2018
328,3085,Roebling St & N 4 St,40.714690000000004,-73.95739,686,309,139,975,159,1134,1,04/01/2018
329,3086,Graham Ave & Conselyea St,40.715143,-73.944507,1145,440,103,1607,81,1688,1,04/01/2018
330,3087,Metropolitan Ave & Meeker Ave,40.71413311,-73.95234386,840,247,121,1095,113,1208,1,04/01/2018
331,3088,Union Ave & Jackson St,40.7160751,-73.95202900000001,281,96,58,371,64,435,1,04/01/2018
332,3090,N 8 St & Driggs Ave,40.71774592,-73.95600096,1738,563,185,2323,163,2486,1,04/01/2018
333,3091,Frost St & Meeker St,40.71764,-73.94882,222,73,39,286,48,334,1,04/01/2018
334,3092,Berry St & N 8 St,40.7190095,-73.95852515,1222,541,161,1714,210,1924,1,04/01/2018
335,3093,N 6 St & Bedford Ave,40.71745169,-73.95850939,1913,801,238,2682,270,2952,1,04/01/2018
336,3094,Graham Ave & Withers St,40.7169811,-73.94485918,361,160,44,511,54,565,1,04/01/2018
337,3095,Graham Ave & Herbert St,40.71929301,-73.94500379,336,87,20,427,16,443,1,04/01/2018
338,3096,Union Ave & N 12 St,40.71924,-73.95241999999999,746,399,111,1131,125,1256,1,04/01/2018
339,3100,Nassau Ave & Newell St,40.724812564400175,-73.94752621650694,653,237,46,886,50,936,1,04/01/2018
340,3101,N 12 St & Bedford Ave,40.72079821,-73.95484712,679,235,129,884,159,1043,1,04/01/2018
341,3102,Driggs Ave & Lorimer St,40.72179134,-73.95041540000001,456,201,98,648,107,755,1,04/01/2018
342,3103,N 11 St & Wythe Ave,40.72153267,-73.95782357,471,211,188,613,257,870,1,04/01/2018
343,3105,N 15 St & Wythe Ave,40.724055,-73.955736,468,181,83,641,91,732,1,04/01/2018
344,3106,Driggs Ave & N Henry St,40.72325,-73.94308000000001,699,325,83,1068,39,1107,1,04/01/2018
345,3107,Bedford Ave & Nassau Ave,40.72311651,-73.95212324,1337,539,197,1825,248,2073,1,04/01/2018
346,3108,Nassau Ave & Russell St,40.725570000000005,-73.94434,748,410,91,1170,79,1249,1,04/01/2018
347,3109,Banker St & Meserole Ave,40.72606,-73.95621,804,263,81,1047,101,1148,1,04/01/2018
348,3110,Meserole Ave & Manhattan Ave,40.72708584,-73.95299117,1012,361,122,1386,109,1495,1,04/01/2018
349,3112,Milton St & Franklin St,40.72906,-73.95779,1356,672,178,2007,199,2206,1,04/01/2018
350,3113,Greenpoint Ave & Manhattan Ave,40.730259999999994,-73.95394,989,338,90,1316,101,1417,1,04/01/2018
351,3115,India St & Manhattan Ave,40.73232194,-73.9550858,698,314,92,990,114,1104,1,04/01/2018
352,3116,Huron St & Franklin St,40.732659999999996,-73.95826,730,329,52,1034,77,1111,1,04/01/2018
353,3117,Franklin St & Dupont St,40.735640000000004,-73.95866,555,239,56,772,78,850,1,04/01/2018
354,3118,McGuinness Blvd & Eagle St,40.73555,-73.95284000000001,723,253,114,935,155,1090,1,04/01/2018
355,3119,Vernon Blvd & 50 Ave,40.74232744,-73.95411749,1346,318,88,1645,107,1752,1,04/01/2018
356,3120,Center Blvd & Borden Ave,40.741609999999994,-73.96044,224,74,174,264,208,472,1,04/01/2018
357,3121,Jackson Ave & 46 Rd,40.74524768,-73.94733276,252,69,68,318,71,389,1,04/01/2018
358,3122,48 Ave & 5 St,40.74436328706688,-73.95587325096129,242,58,34,292,42,334,1,04/01/2018
359,3123,31 St & Thomson Ave,40.74469738,-73.93540375,195,80,19,276,18,294,1,04/01/2018
360,3124,46 Ave & 5 St,40.74731,-73.95451,840,261,102,1049,154,1203,1,04/01/2018
361,3125,45 Rd & 11 St,40.74708586,-73.94977234,610,172,66,779,69,848,1,04/01/2018
362,3126,44 Dr & Jackson Ave,40.74718234,-73.9432635,681,224,84,899,90,989,1,04/01/2018
363,3127,9 St & 44 Rd,40.74966,-73.9521,135,64,55,176,78,254,1,04/01/2018
364,3128,21 St & 43 Ave,40.75052534,-73.94594845,197,36,26,228,31,259,1,04/01/2018
365,3129,Queens Plaza North & Crescent St,40.75110165,-73.94073717,1220,388,295,1518,385,1903,1,04/01/2018
366,3130,21 St & Queens Plaza North,40.75325964,-73.94335788,319,116,45,419,61,480,1,04/01/2018
367,3131,E 68 St & 3 Ave,40.76712840349542,-73.96224617958069,849,179,48,1028,48,1076,1,04/01/2018
368,3132,E 59 St & Madison Ave,40.76350532,-73.97109243,1375,390,196,1716,245,1961,1,04/01/2018
369,3134,3 Ave & E 62 St,40.76312584,-73.96526895,1155,274,98,1412,115,1527,1,04/01/2018
370,3135,E 75 St & 3 Ave,40.77112927,-73.95772297,804,274,36,1063,51,1114,1,04/01/2018
371,3136,5 Ave & E 63 St,40.766368,-73.971518,575,215,386,695,481,1176,1,04/01/2018
372,3137,5 Ave & E 73 St,40.77282817,-73.96685276,1302,688,1230,1757,1463,3220,1,04/01/2018
373,3139,E 72 St & Park Ave,40.77118287540658,-73.96409422159195,842,307,229,1063,315,1378,1,04/01/2018
374,3140,1 Ave & E 78 St,40.77140426,-73.9535166,2001,703,155,2686,173,2859,1,04/01/2018
375,3141,1 Ave & E 68 St,40.76500525,-73.95818491,2971,928,217,3913,203,4116,1,04/01/2018
376,3142,1 Ave & E 62 St,40.761227399999996,-73.96094022,2166,729,217,2847,265,3112,1,04/01/2018
377,3143,5 Ave & E 78 St,40.77632142182271,-73.96427392959596,1072,487,931,1286,1204,2490,1,04/01/2018
378,3144,E 81 St & Park Ave,40.77677702,-73.95900970000001,345,112,52,434,75,509,1,04/01/2018
379,3145,E 84 St & Park Ave,40.77862688,-73.95772073,887,272,132,1130,161,1291,1,04/01/2018
380,3146,E 81 St & 3 Ave,40.77573034,-73.9567526,863,288,72,1146,77,1223,1,04/01/2018
381,3147,E 85 St & 3 Ave,40.77801203,-73.95407149,1941,593,148,2526,156,2682,1,04/01/2018
382,3148,E 84 St & 1 Ave,40.77565541,-73.95068615,1083,420,83,1486,100,1586,1,04/01/2018
383,3150,E 85 St & York Ave,40.77536905,-73.94803392,763,258,59,1023,57,1080,1,04/01/2018
384,3151,E 81 St & York Ave,40.7728384,-73.94989233,992,289,53,1274,60,1334,1,04/01/2018
385,3152,3 Ave & E 71 St,40.76873687,-73.96119945,618,199,50,804,63,867,1,04/01/2018
386,3155,Lexington Ave & E 63 St,40.76440023,-73.96648977,1070,338,100,1406,102,1508,1,04/01/2018
387,3156,E 72 St & York Ave,40.76663814,-73.95348296,1565,342,97,1927,77,2004,1,04/01/2018
388,3157,East End Ave & E 86 St,40.77518615,-73.94446054,336,164,55,459,96,555,1,04/01/2018
389,3158,W 63 St & Broadway,40.77163851,-73.98261428,2551,786,230,3255,312,3567,1,04/01/2018
390,3159,W 67 St & Broadway,40.77492513,-73.98266566,2297,852,173,3140,182,3322,1,04/01/2018
391,3160,Central Park West & W 76 St,40.77896784,-73.97374737,966,491,1070,1240,1287,2527,1,04/01/2018
392,3161,W 76 St & Columbus Ave,40.7801839724239,-73.97728532552719,1795,586,201,2327,255,2582,1,04/01/2018
393,3162,W 78 St & Broadway,40.78339981,-73.98093133,1156,525,139,1670,150,1820,1,04/01/2018
394,3163,Central Park West & W 68 St,40.7734066,-73.97782542,2432,929,1082,3175,1268,4443,1,04/01/2018
395,3164,Columbus Ave & W 72 St,40.7770575,-73.97898475,3146,1211,317,4319,355,4674,1,04/01/2018
396,3165,Central Park West & W 72 St,40.77579376683666,-73.97620573639871,2268,888,1376,2856,1676,4532,1,04/01/2018
397,3166,Riverside Dr & W 72 St,40.780577990103346,-73.98562431335448,1090,619,331,1607,433,2040,1,04/01/2018
398,3167,Amsterdam Ave & W 73 St,40.779668090073116,-73.98093044757842,2695,1027,234,3724,232,3956,1,04/01/2018
399,3168,Central Park West & W 85 St,40.78472675,-73.96961715,1810,772,836,2284,1134,3418,1,04/01/2018
400,3169,Riverside Dr & W 82 St,40.78720869,-73.98128127,850,366,135,1132,219,1351,1,04/01/2018
401,3170,W 84 St & Columbus Ave,40.78499979,-73.97283406,1534,677,164,2207,168,2375,1,04/01/2018
402,3171,Amsterdam Ave & W 82 St,40.78524672,-73.97667321,1440,723,139,2154,148,2302,1,04/01/2018
403,3172,W 74 St & Columbus Ave,40.7785669,-73.97754961,1081,531,109,1555,166,1721,1,04/01/2018
404,3173,Riverside Blvd & W 67 St,40.777507027547976,-73.98888587951659,1240,522,349,1631,480,2111,1,04/01/2018
405,3175,W 70 St & Amsterdam Ave,40.77748046,-73.98288594,1687,616,149,2312,140,2452,1,04/01/2018
406,3176,W 64 St & West End Ave,40.77452835,-73.98753759,1276,430,91,1694,103,1797,1,04/01/2018
407,3177,W 84 St & Broadway,40.7867947,-73.977112,1155,465,93,1590,123,1713,1,04/01/2018
408,3178,Riverside Dr & W 78 St,40.78414472,-73.98362492,658,313,184,861,294,1155,1,04/01/2018
409,3179,Park Ave & Marcus Garvey Blvd,40.698617,-73.941342,184,72,32,242,46,288,1,04/01/2018
410,3180,Brooklyn Bridge Park - Pier 2,40.69878,-73.99712,386,177,626,484,705,1189,1,04/01/2018
411,3182,Yankee Ferry Terminal,40.686931,-74.016966,2,1,0,3,0,3,1,04/01/2018
412,3221,47 Ave & 31 St,40.743,-73.93561,176,55,22,233,20,253,1,04/01/2018
413,3223,E 55 St & 3 Ave,40.758996559605116,-73.96865397691727,2081,344,142,2429,138,2567,1,04/01/2018
414,3224,W 13 St & Hudson St,40.73997354103409,-74.00513872504234,3201,1133,369,4218,485,4703,1,04/01/2018
415,3226,W 82 St & Central Park West,40.78275,-73.97137,1296,544,325,1683,482,2165,1,04/01/2018
416,3231,E 67 St & Park Ave,40.76780080148132,-73.96592080593109,668,176,41,842,43,885,1,04/01/2018
417,3232,Bond St & Fulton St,40.68962188790333,-73.98304268717766,930,414,124,1315,153,1468,1,04/01/2018
418,3233,E 48 St & 5 Ave,40.75724567911726,-73.97805914282799,3139,472,349,3523,437,3960,1,04/01/2018
419,3235,E 41 St & Madison Ave,40.752165280621966,-73.97992193698882,1513,293,99,1795,110,1905,1,04/01/2018
420,3236,W 42 St & Dyer Ave,40.75898481399634,-73.99379968643187,2671,467,135,3117,156,3273,1,04/01/2018
421,3239,Bressler,40.646538367096475,-74.0165877342224,33,0,0,33,0,33,1,04/01/2018
422,3241,Monroe St & Tompkins Ave,40.686203000000006,-73.944694,397,112,43,494,58,552,1,04/01/2018
423,3242,Schermerhorn St & Court St,40.69102925677968,-73.99183362722397,886,293,92,1192,79,1271,1,04/01/2018
424,3243,E 58 St & 1 Ave,40.75892386377695,-73.96226227283478,1418,492,131,1859,182,2041,1,04/01/2018
425,3244,University Pl & E 8 St,40.73143724085228,-73.99490341544151,3116,926,236,4009,269,4278,1,04/01/2018
426,3245,NYCBS DEPOT - DELANCEY,40.71644423134479,-73.9823305606842,1,0,0,1,0,1,1,04/01/2018
427,3249,Verona Pl & Fulton St,40.680356084043396,-73.94767910242079,330,129,26,456,29,485,1,04/01/2018
428,3254,Soissons Landing,40.69231660719192,-74.01486575603484,4,0,2,4,2,6,1,04/01/2018
429,3255,8 Ave & W 31 St,40.7505853470215,-73.9946848154068,6099,825,333,6852,405,7257,1,04/01/2018
430,3256,Pier 40 - Hudson River Park,40.7277140777778,-74.01129573583603,2000,832,1006,2525,1313,3838,1,04/01/2018
431,3258,W 27 St & 10 Ave,40.750181563256824,-74.00218427181244,2483,889,211,3388,195,3583,1,04/01/2018
432,3259,9 Ave & W 28 St,40.74937024193277,-73.99923384189607,1968,540,205,2483,230,2713,1,04/01/2018
433,3260,Mercer St & Bleecker St,40.72706363348306,-73.99662137031554,2671,908,238,3541,276,3817,1,04/01/2018
434,3263,Cooper Square & Astor Pl,40.729514962249496,-73.99075269699097,4016,1212,306,5211,323,5534,1,04/01/2018
435,3282,5 Ave & E 88 St,40.78307,-73.95939,1386,690,1778,1548,2306,3854,1,04/01/2018
436,3283,W 89 St & Columbus Ave,40.7882213,-73.97041561,1210,747,149,1925,181,2106,1,04/01/2018
437,3284,E 88 St & Park Ave,40.781410700190015,-73.95595908164978,621,164,54,770,69,839,1,04/01/2018
438,3285,W 87 St & Amsterdam Ave,40.78839,-73.9747,1079,402,101,1452,130,1582,1,04/01/2018
439,3286,E 89 St & 3 Ave,40.7806284,-73.9521667,963,305,101,1261,108,1369,1,04/01/2018
440,3288,E 88 St & 1 Ave,40.778301,-73.9488134,170,96,18,273,11,284,1,04/01/2018
441,3289,W 90 St & Amsterdam Ave,40.79017948095081,-73.97288918495178,789,306,49,1101,43,1144,1,04/01/2018
442,3290,E 89 St & York Ave,40.7779453,-73.94604100000001,935,431,77,1357,86,1443,1,04/01/2018
443,3292,5 Ave & E 93 St,40.785785100000005,-73.957481,588,382,434,827,577,1404,1,04/01/2018
444,3293,W 92 St & Broadway,40.7921,-73.9739,981,372,46,1350,49,1399,1,04/01/2018
445,3294,E 91 St & Park Ave,40.7835016,-73.955327,589,266,57,827,85,912,1,04/01/2018
446,3295,Central Park W & W 96 St,40.791270000000004,-73.964839,1210,668,629,1711,796,2507,1,04/01/2018
447,3296,E 93 St & 2 Ave,40.78245417527987,-73.94891962409021,522,170,45,681,56,737,1,04/01/2018
448,3297,6 St & 7 Ave,40.668662700000006,-73.97988067,414,138,42,555,39,594,1,04/01/2018
449,3298,Warren St & Court St,40.686371,-73.99383324,631,243,52,872,54,926,1,04/01/2018
450,3299,E 98 St & Park Ave,40.788129999999995,-73.95206,132,36,15,169,14,183,1,04/01/2018
451,3300,Prospect Park West & 8 St,40.66514681533792,-73.97637605667114,593,275,143,845,166,1011,1,04/01/2018
452,3301,Columbus Ave & W 95 St,40.7919557,-73.968087,1313,638,117,1944,124,2068,1,04/01/2018
453,3302,Columbus Ave & W 103 St,40.7969347,-73.9643412291,330,81,26,403,34,437,1,04/01/2018
454,3303,Butler St & Court St,40.6849894,-73.99440329,375,211,37,590,33,623,1,04/01/2018
455,3304,6 Ave & 9 St,40.668127,-73.98377641,542,240,82,822,42,864,1,04/01/2018
456,3305,E 91 St & 2 Ave,40.781122299341654,-73.94965589046478,1255,372,115,1598,144,1742,1,04/01/2018
457,3306,10 St & 7 Ave,40.666207799999995,-73.98199886,467,215,101,735,48,783,1,04/01/2018
458,3307,West End Ave & W 94 St,40.7941654,-73.974124,681,297,110,942,146,1088,1,04/01/2018
459,3308,Kane St & Clinton St,40.686175799999994,-73.99645295,603,329,32,927,37,964,1,04/01/2018
460,3309,E 97 St & 3 Ave,40.7859201,-73.94860294,264,80,39,339,44,383,1,04/01/2018
461,3310,14 St & 7 Ave,40.663779,-73.98396846,593,191,61,795,50,845,1,04/01/2018
462,3311,Columbia St & Kane St,40.68763155,-74.0016256,539,194,88,715,106,821,1,04/01/2018
463,3312,1 Ave & E 94 St,40.78172120000001,-73.94594000000001,650,296,38,932,52,984,1,04/01/2018
464,3313,6 Ave & 12 St,40.666318100000005,-73.9854617,311,190,31,504,28,532,1,04/01/2018
465,3314,W 95 St & Broadway,40.7937704,-73.971888,1226,516,138,1727,153,1880,1,04/01/2018
466,3315,Henry St & Degraw St,40.684751399999996,-73.99917254,736,444,104,1222,62,1284,1,04/01/2018
467,3316,W 104 St & Amsterdam Ave - 1,40.798993700000004,-73.96621737779999,547,300,84,789,142,931,1,04/01/2018
468,3317,10 St & 5 Ave,40.6686273,-73.98700053,297,126,28,421,30,451,1,04/01/2018
469,3318,2 Ave & E 96 St,40.7839636,-73.94716729999999,1194,411,72,1600,77,1677,1,04/01/2018
470,3319,14 St & 5 Ave,40.666287,-73.98895053,436,218,70,647,77,724,1,04/01/2018
471,3320,Central Park West & W 100 St,40.794066608185524,-73.96286845207214,716,391,566,935,738,1673,1,04/01/2018
472,3321,Clinton St & Union St,40.683116399999996,-73.99785267,485,339,58,838,44,882,1,04/01/2018
473,3322,12 St & 4 Ave,40.668603000000004,-73.99043940000001,227,84,21,306,26,332,1,04/01/2018
474,3323,W 106 St & Central Park West,40.798185600000004,-73.96059090060001,880,345,268,1127,366,1493,1,04/01/2018
475,3324,3 Ave & 14 St,40.6685455,-73.99333264,309,104,43,381,75,456,1,04/01/2018
476,3325,E 95 St & 3 Ave,40.7849032,-73.950503,233,84,47,313,51,364,1,04/01/2018
477,3326,Clinton St & Centre St,40.67434,-74.00194698,82,60,6,142,6,148,1,04/01/2018
478,3327,3 Ave & E 100 St,40.787721399999995,-73.94728331,139,85,25,225,24,249,1,04/01/2018
479,3328,W 100 St & Manhattan Ave,40.795,-73.9645,768,259,67,1007,87,1094,1,04/01/2018
480,3329,Degraw St & Smith St,40.6829151,-73.99318208,490,214,60,709,55,764,1,04/01/2018
481,3330,Henry St & Bay St,40.672505799999996,-74.00494695,65,31,27,91,32,123,1,04/01/2018
482,3331,Riverside Dr & W 104 St,40.8013434,-73.97114574390001,633,334,156,874,249,1123,1,04/01/2018
483,3332,Degraw St & Hoyt St,40.68199044270703,-73.99079024791719,326,167,55,502,46,548,1,04/01/2018
484,3333,Columbia St & Lorraine St,40.6747055,-74.00755720000001,20,14,11,31,14,45,1,04/01/2018
485,3335,Union St & 4 Ave,40.6772744,-73.98282002,794,279,97,1080,90,1170,1,04/01/2018
486,3336,E 97 St & Madison Ave,40.787801,-73.953559,855,324,124,1130,173,1303,1,04/01/2018
487,3337,Dwight St & Van Dyke St,40.67363551341504,-74.01195555925368,109,53,25,146,41,187,1,04/01/2018
488,3338,2 Ave & E 99 St,40.786258600000004,-73.94552579,271,109,38,400,18,418,1,04/01/2018
489,3339,Berkeley Pl & 6 Ave,40.6765304,-73.97846879,411,202,54,640,27,667,1,04/01/2018
490,3340,Wolcott St & Dwight St,40.6753274,-74.0100698,98,64,19,157,24,181,1,04/01/2018
491,3341,Central Park West & W 102 St,40.795346,-73.96186,576,223,197,747,249,996,1,04/01/2018
492,3342,Pioneer St & Richards St,40.677774799999995,-74.0094613,108,56,16,162,18,180,1,04/01/2018
493,3343,W 107 St & Columbus Ave,40.7997568,-73.9621128676,497,204,47,689,59,748,1,04/01/2018
494,3344,Pioneer St & Van Brunt St,40.679043,-74.011169,263,184,97,424,120,544,1,04/01/2018
495,3345,Madison Ave & E 99 St,40.78948541553215,-73.9524292945862,478,185,31,649,45,694,1,04/01/2018
496,3346,Berkeley Pl & 7 Ave,40.675146838709786,-73.9752320945263,787,425,71,1230,53,1283,1,04/01/2018
497,3347,Van Brunt St & Wolcott St,40.6773429,-74.01275056,315,188,73,504,72,576,1,04/01/2018
498,3348,Coffey St & Conover St,40.677236,-74.015665,229,109,87,313,112,425,1,04/01/2018
499,3349,Grand Army Plaza & Plaza St West,40.6729679,-73.97087984,1007,611,380,1484,514,1998,1,04/01/2018
500,3350,W 100 St & Broadway,40.797372100000004,-73.97041192,1201,461,135,1635,162,1797,1,04/01/2018
501,3351,E 102 St & 1 Ave,40.7869946,-73.94164802,834,329,144,1217,90,1307,1,04/01/2018
502,3352,Sigourney St & Columbia St,40.67267243410948,-74.00879524648191,156,55,46,189,68,257,1,04/01/2018
503,3354,3 St & Prospect Park West,40.668132,-73.97363831,889,437,235,1258,303,1561,1,04/01/2018
504,3355,E 66 St & Madison Ave,40.768008893059466,-73.96845281124116,487,211,136,617,217,834,1,04/01/2018
505,3356,Amsterdam Ave & W 66 St,40.7746671,-73.98470567,940,330,59,1251,78,1329,1,04/01/2018
506,3357,W 106 St & Amsterdam Ave,40.80083629999999,-73.9664492472,652,330,58,958,82,1040,1,04/01/2018
507,3358,Garfield Pl & 8 Ave,40.671197799999995,-73.97484126,537,267,71,817,58,875,1,04/01/2018
508,3359,E 68 St & Madison Ave,40.7691572,-73.96703464,535,237,127,729,170,899,1,04/01/2018
509,3360,Amsterdam Ave & W 79 St,40.7829391,-73.9786517,1519,594,168,2089,192,2281,1,04/01/2018
510,3361,Carroll St & 6 Ave,40.6740886,-73.9787282,580,312,63,924,31,955,1,04/01/2018
511,3362,Madison Ave & E 82 St,40.7781314,-73.96069399,881,333,348,1063,499,1562,1,04/01/2018
512,3363,E 102 St & Park Ave,40.7904828,-73.95033068,269,148,37,411,43,454,1,04/01/2018
513,3364,Carroll St & 5 Ave,40.6751622,-73.9814832,523,222,80,752,73,825,1,04/01/2018
514,3365,3 St & 7 Ave,40.67038370000001,-73.97839676,653,338,73,1007,57,1064,1,04/01/2018
515,3366,West End Ave & W 107 St,40.8021174,-73.9681805305,600,299,94,872,121,993,1,04/01/2018
516,3367,5 Ave & E 103 St,40.792255299999994,-73.95249933,766,503,346,1102,513,1615,1,04/01/2018
517,3368,5 Ave & 3 St,40.672815500000006,-73.98352355,672,294,140,1044,62,1106,1,04/01/2018
518,3369,E 82 St & East End Ave,40.7724607,-73.9468208,559,317,63,872,67,939,1,04/01/2018
519,3370,E 78 St & 2 Ave,40.7727966,-73.95577801,617,254,61,868,64,932,1,04/01/2018
520,3371,4 Ave & 2 St,40.674613422475815,-73.98501142859459,304,76,34,378,36,414,1,04/01/2018
521,3372,E 74 St & 1 Ave,40.7689738,-73.95482273,1257,416,63,1659,77,1736,1,04/01/2018
522,3373,3 St & 3 Ave,40.675070500000004,-73.98775226,618,241,61,873,47,920,1,04/01/2018
523,3374,Central Park North & Adam Clayton Powell Blvd,40.799484,-73.955613,998,516,1152,1179,1487,2666,1,04/01/2018
524,3375,3 Ave & E 72 St,40.7699426,-73.96060712,575,181,63,727,92,819,1,04/01/2018
525,3376,E 65 St & 2 Ave,40.76471851944339,-73.96222069859505,831,186,44,1003,58,1061,1,04/01/2018
526,3377,Carroll St & Bond St,40.6786115,-73.99037292,589,223,110,835,87,922,1,04/01/2018
527,3378,E 76 St & Park Ave,40.773763,-73.96222088,934,307,160,1175,226,1401,1,04/01/2018
528,3379,E 103 St & Lexington Ave,40.790305100000005,-73.94755757,478,202,69,721,28,749,1,04/01/2018
529,3381,3 St & Hoyt St,40.6777287,-73.99364123,318,122,32,448,24,472,1,04/01/2018
530,3382,Carroll St & Smith St,40.680611,-73.99475825,876,371,129,1292,84,1376,1,04/01/2018
531,3383,Cathedral Pkwy & Broadway,40.804213,-73.96699104,971,413,121,1333,172,1505,1,04/01/2018
532,3384,Smith St & 3 St,40.678724200000005,-73.99599099,514,283,78,827,48,875,1,04/01/2018
533,3386,1 Pl & Clinton St,40.6809591,-73.99905709,425,241,36,657,45,702,1,04/01/2018
534,3387,E 106 St & Madison Ave,40.79343370000001,-73.94945003,264,94,49,350,57,407,1,04/01/2018
535,3388,President St & Henry St,40.6828003,-73.99990419,454,176,40,625,45,670,1,04/01/2018
536,3389,Carroll St & Columbia St,40.6830456,-74.00348559,439,252,21,674,38,712,1,04/01/2018
537,3390,E 109 St & 3 Ave,40.79329668,-73.9432083,259,93,34,351,35,386,1,04/01/2018
538,3391,E 106 St & 1 Ave,40.7892529,-73.93956237,179,109,9,285,12,297,1,04/01/2018
539,3392,Commerce St & Van Brunt St,40.681211700000006,-74.00860912,179,63,41,223,60,283,1,04/01/2018
540,3393,Richards St & Delavan St,40.67943270000001,-74.00785041,170,96,28,274,20,294,1,04/01/2018
541,3394,Columbia St & W 9 St,40.6769993,-74.00647134,28,43,2,68,5,73,1,04/01/2018
542,3396,Clinton St & 4 Place,40.6783563,-74.00014502,458,274,61,735,58,793,1,04/01/2018
543,3397,Court St & Nelson St,40.6763947,-73.99869893,385,256,71,623,89,712,1,04/01/2018
544,3398,Smith St & 9 St,40.67469570000001,-73.99785768,561,311,73,878,67,945,1,04/01/2018
545,3399,7 St & 3 Ave,40.67260298150126,-73.98983001708984,258,113,26,383,14,397,1,04/01/2018
546,3400,E 110 St & Madison Ave,40.796153499999996,-73.94782145,412,219,115,613,133,746,1,04/01/2018
547,3401,2 Ave & 9 St,40.6724811,-73.99331394,230,68,22,296,24,320,1,04/01/2018
548,3402,Court St & State St,40.6902375,-73.99203074,1219,588,125,1826,106,1932,1,04/01/2018
549,3403,4 Ave & 9 St,40.6705135,-73.98876585,465,165,55,651,34,685,1,04/01/2018
550,3404,7 St & 5 Ave,40.670492200000005,-73.98541675,383,151,63,561,36,597,1,04/01/2018
551,3405,5 St & 6 Ave,40.670483600000004,-73.98208968,363,150,22,524,11,535,1,04/01/2018
552,3407,Union St & Nevins St,40.67909799721684,-73.98765474557877,448,224,92,663,101,764,1,04/01/2018
553,3408,Congress St & Clinton St,40.6881529,-73.99520919,647,367,80,1020,74,1094,1,04/01/2018
554,3409,Bergen St & Smith St,40.686744299999994,-73.99063168,1668,704,178,2386,164,2550,1,04/01/2018
555,3410,Dean St & Hoyt St,40.686444200000004,-73.98759104,411,236,82,645,84,729,1,04/01/2018
556,3411,Bond St & Bergen St,40.6849668,-73.98620772,577,302,80,898,61,959,1,04/01/2018
557,3412,Pacific St & Nevins St,40.6853761,-73.98302136,479,183,52,665,49,714,1,04/01/2018
558,3413,Wyckoff St & 3 Ave,40.6827549,-73.98258555,467,185,33,651,34,685,1,04/01/2018
559,3414,Bergen St & Flatbush Ave,40.680944723477296,-73.97567331790923,642,292,86,897,123,1020,1,04/01/2018
560,3415,Prospect Pl & 6 Ave,40.6793307,-73.97519523,461,195,53,674,35,709,1,04/01/2018
561,3417,Baltic St & 5 Ave,40.6795766,-73.97854971,585,335,100,923,97,1020,1,04/01/2018
562,3418,Plaza St West & Flatbush Ave,40.675020700000005,-73.97111473,1009,428,179,1447,169,1616,1,04/01/2018
563,3419,Douglass St & 4 Ave,40.67927879999999,-73.98154004,501,257,75,752,81,833,1,04/01/2018
564,3420,Douglass St & 3 Ave,40.6802133,-73.98432695,674,220,71,896,69,965,1,04/01/2018
565,3421,Hoyt St & Warren St,40.6843549,-73.98901629,224,157,13,367,27,394,1,04/01/2018
566,3422,Columbia St & Degraw St,40.6859296,-74.00242364,478,238,128,689,155,844,1,04/01/2018
567,3423,West Drive & Prospect Park West,40.6610633719006,-73.97945255041121,1125,669,589,1727,656,2383,1,04/01/2018
568,3424,E 106 St & Lexington Ave,40.791976,-73.945993,233,142,32,363,44,407,1,04/01/2018
569,3425,2 Ave & E 104 St,40.789210499999996,-73.94370784,541,185,22,723,25,748,1,04/01/2018
570,3427,Lafayette St & Jersey St,40.72430527250332,-73.99600982666016,2962,1112,288,3956,406,4362,1,04/01/2018
571,3429,Hanson Pl & Ashland Pl,40.68506807308177,-73.97790759801863,2218,613,124,2839,116,2955,1,04/01/2018
572,3430,Richardson St & N Henry St,40.71907891179564,-73.94223690032959,703,210,34,915,32,947,1,04/01/2018
573,3431,E 35 St & 3 Ave,40.746524,-73.977885,1732,459,122,2176,137,2313,1,04/01/2018
574,3432,NYCBS Depot - GOW,40.66906013501107,-73.99463653564453,49,13,0,62,0,62,1,04/01/2018
575,3434,W 88 St & West End Ave,40.790254173304184,-73.97718340158461,829,335,70,1138,96,1234,1,04/01/2018
576,3435,Grand St & Elizabeth St,40.718821999999996,-73.99596,3274,1355,432,4584,477,5061,1,04/01/2018
577,3437,Riverside Dr & W 91 St,40.793134809866636,-73.97700369358063,518,294,145,706,251,957,1,04/01/2018
578,3438,E 76 St & 3 Ave,40.772248537721744,-73.95842134952545,658,219,95,919,53,972,1,04/01/2018
579,3440,Fulton St & Adams St,40.692418292578466,-73.98949474096298,1403,542,237,1936,246,2182,1,04/01/2018
580,3441,10 Hudson Yards,40.752957,-74.00264,212,52,18,276,6,282,1,04/01/2018
581,3443,W 52 St & 6 Ave,40.76132983124814,-73.97982001304626,3851,481,185,4271,246,4517,1,04/01/2018
582,3447,E 71 St & 1 Ave,40.76703432309872,-73.95622730255127,1147,339,71,1466,91,1557,1,04/01/2018
583,3449,Eckford St & Engert Ave,40.72146256229816,-73.94800901412964,376,83,10,460,9,469,1,04/01/2018
584,3452,Bayard St & Leonard St,40.71915571696044,-73.94885390996933,448,189,44,630,51,681,1,04/01/2018
585,3453,Devoe St & Lorimer St,40.71335226222875,-73.9491033554077,670,314,62,974,72,1046,1,04/01/2018
586,3454,Leonard St & Maujer St,40.71036854235229,-73.94705951213838,463,151,37,600,51,651,1,04/01/2018
587,3455,Schermerhorn St & 3 Ave,40.68680820503432,-73.98036181926726,480,263,24,734,33,767,1,04/01/2018
588,3456,Jackson St & Leonard St,40.716380319735606,-73.94821286201476,138,71,24,209,24,233,1,04/01/2018
589,3457,E 58 St & Madison Ave,40.763025942805186,-73.97209525108337,971,284,122,1240,137,1377,1,04/01/2018
590,3458,W 55 St & 6 Ave,40.76309387270797,-73.97835016250609,2530,515,279,2938,386,3324,1,04/01/2018
591,3459,E 53 St & 3 Ave,40.75763227739443,-73.9693057537079,1565,385,86,1944,92,2036,1,04/01/2018
592,3461,Murray St & Greenwich St,40.71485150526252,-74.01122331619263,1648,567,189,2189,215,2404,1,04/01/2018
593,3462,E 44 St & 2 Ave,40.75118387463277,-73.97138714790343,1054,315,72,1352,89,1441,1,04/01/2018
594,3463,E 16 St & Irving Pl,40.735367055605394,-73.98797392845155,2250,628,99,2863,114,2977,1,04/01/2018
595,3466,W 45 St & 6 Ave (OLD),40.75668720603179,-73.98257732391356,2025,392,235,2370,282,2652,1,04/01/2018
596,3468,NYCBS Depot - STY - Garage 4,40.730380100000005,-73.9747502,35,12,0,47,0,47,1,04/01/2018
597,3469,India St & West St,40.73181401720966,-73.95995020866394,309,93,46,397,51,448,1,04/01/2018
598,3472,W 15 St & 10 Ave,40.742753828659026,-74.00747358798982,1554,506,438,1849,649,2498,1,04/01/2018
599,3474,6 Ave & Spring St,40.7252556952547,-74.00412082672119,2060,649,235,2636,308,2944,1,04/01/2018
600,3477,39 St & 2 Ave - Citi Bike HQ at Industry City,40.65539977447831,-74.0106278657913,106,25,26,126,31,157,1,04/01/2018
601,3478,2 Ave & 36 St - Citi Bike HQ at Industry City,40.65708866668485,-74.00870203971863,392,151,56,513,86,599,1,04/01/2018
602,3479,Picnic Point,40.68512559515415,-74.02535319328308,1,1,0,2,0,2,1,04/01/2018
603,3485,NYCBS Depot - RIS,40.725208,-73.974724,2,0,0,2,0,2,1,04/01/2018
604,3486,Schermerhorn St & Bond St,40.68841742754083,-73.98451656103134,990,356,101,1371,76,1447,1,04/01/2018
605,3488,8D QC Station 01,45.506364054011385,-73.5694634914398,0,0,1,0,1,1,1,04/01/2018
606,3489,Gold St & Frankfort St,40.710699946313866,-74.00354146957396,602,220,224,775,271,1046,1,04/01/2018
607,3490,E 116 St & 2 Ave,40.796879,-73.93726099999999,113,82,33,195,33,228,1,04/01/2018
608,3491,E 118 St & 1 Ave,40.797470000000004,-73.93504,234,52,23,287,22,309,1,04/01/2018
609,3492,E 118 St & Park Ave,40.8005385,-73.9419949,69,22,11,93,9,102,1,04/01/2018
610,3493,E 118 St & 3 Ave,40.799139000000004,-73.9389152,218,49,21,274,14,288,1,04/01/2018
611,3494,E 115 St & Lexington Ave,40.797911,-73.9423,188,89,53,297,33,330,1,04/01/2018
612,3495,E 114 St & 1 Ave,40.79456629999999,-73.9362541,188,29,19,215,21,236,1,04/01/2018
613,3496,1 Ave & E 110 St,40.7923272,-73.9383,454,138,54,598,48,646,1,04/01/2018
614,3497,Pleasant Ave & E 116 St,40.794987899999995,-73.9333349,603,169,38,762,48,810,1,04/01/2018
615,3498,Pleasant Ave & E 120 St,40.7974772,-73.9311847,107,75,28,176,34,210,1,04/01/2018
616,3499,2 Ave & E 122 St,40.8006721,-73.9349,178,50,20,215,33,248,1,04/01/2018
617,3500,E 115 St & Madison Ave,40.7989445,-73.944846,160,62,24,236,10,246,1,04/01/2018
618,3501,E 118 St & Madison Ave,40.801486600000004,-73.9442507,191,61,17,249,20,269,1,04/01/2018
619,3502,Lexington Ave & E 111 St,40.79541210000001,-73.9441232,242,101,44,350,37,387,1,04/01/2018
620,3503,Madison Ave & E 120 St,40.80295,-73.942954,147,49,37,193,40,233,1,04/01/2018
621,3504,E 123 St & Lexington Ave,40.802926299999996,-73.9379,194,82,20,278,18,296,1,04/01/2018
622,3505,Lexington Ave & E 127 St,40.805726,-73.936322,99,27,20,125,21,146,1,04/01/2018
623,3506,Lexington Ave & E 120 St,40.8013066,-73.93981670000001,116,56,13,169,16,185,1,04/01/2018
624,3507,Park Ave & E 124 St,40.8045555,-73.93968609999999,1022,350,71,1378,65,1443,1,04/01/2018
625,3508,St Nicholas Ave & Manhattan Ave,40.809725,-73.953149,753,228,81,963,99,1062,1,04/01/2018
626,3509,Lenox Ave & W 115 St,40.8011939,-73.9500739,401,172,86,572,87,659,1,04/01/2018
627,3510,Adam Clayton Powell Blvd & W 123 St,40.8078316,-73.949373,277,163,72,456,56,512,1,04/01/2018
628,3511,Adam Clayton Powell Blvd & W 115 St,40.802535,-73.9532423,200,107,68,292,83,375,1,04/01/2018
629,3512,27 Ave & 4 St,40.7747175,-73.93378940000001,30,5,23,28,30,58,1,04/01/2018
630,3513,21 St & Hoyt Ave S,40.774645,-73.92370600000001,90,51,32,125,48,173,1,04/01/2018
631,3514,Astoria Park S & Shore Blvd,40.7767,-73.927631,217,95,124,266,170,436,1,04/01/2018
632,3515,24 Ave & 26 St,40.774591,-73.918544,204,54,10,246,22,268,1,04/01/2018
633,3516,31 St & Astoria Blvd,40.76991760000001,-73.91840570000001,596,201,34,795,36,831,1,04/01/2018
634,3517,31 St & Hoyt Ave N,40.771152799999996,-73.9170074,250,99,50,369,30,399,1,04/01/2018
635,3518,Lenox Ave & W 126 St,40.808442,-73.94520870000001,569,260,96,769,156,925,1,04/01/2018
636,3520,Adam Clayton Powell Blvd & W 118 St,40.804372,-73.951475,204,93,69,307,59,366,1,04/01/2018
637,3521,Lenox Ave & W 111 St,40.7987859,-73.9523,766,378,542,1036,650,1686,1,04/01/2018
638,3522,37 St & 24 Ave,40.7701477,-73.9120938,187,36,21,229,15,244,1,04/01/2018
639,3523,24 Ave & 29 St,40.7729,-73.91614200000001,135,59,44,191,47,238,1,04/01/2018
640,3524,19 St & 24 Ave,40.777455200000006,-73.9225403,172,110,49,283,48,331,1,04/01/2018
641,3525,23 Ave & 27 St,40.776165,-73.9153175,86,51,23,133,27,160,1,04/01/2018
642,3526,31 St & 23 Ave,40.7747878,-73.91255509999999,499,185,103,675,112,787,1,04/01/2018
643,3527,5 Ave & E 126 St,40.806979999999996,-73.94174699999999,170,62,28,240,20,260,1,04/01/2018
644,3528,Steinway St & 23 Ave,40.771393700000004,-73.9077436,184,69,26,215,64,279,1,04/01/2018
645,3529,Lenox Ave & W 130 St,40.8107922,-73.9430681,447,167,56,579,91,670,1,04/01/2018
646,3530,Crescent St & Ditmars Blvd,40.7787185,-73.9145645,186,57,36,229,50,279,1,04/01/2018
647,3531,Frederick Douglass Blvd & W 129 St,40.8125511,-73.9492286,204,110,72,311,75,386,1,04/01/2018
648,3532,Ditmars Blvd & 19 St,40.78145,-73.9183302,237,107,119,322,141,463,1,04/01/2018
649,3533,St. Nicholas Ave & W 126 St,40.8114323,-73.95187759999999,372,148,70,481,109,590,1,04/01/2018
650,3534,Frederick Douglass Blvd & W 117 St,40.805159,-73.95469200000001,857,410,157,1247,177,1424,1,04/01/2018
651,3535,Mt Morris Park W & W 120 St,40.804038,-73.945925,321,191,64,519,57,576,1,04/01/2018
652,3536,W 116 St & Broadway,40.8082,-73.9641,697,330,118,977,168,1145,1,04/01/2018
653,3537,Carlton Ave & Dean St,40.68097410000001,-73.97100970000001,464,176,27,630,37,667,1,04/01/2018
654,3538,W 110 St & Amsterdam Ave,40.802692,-73.96295,589,284,129,848,154,1002,1,04/01/2018
655,3539,W 116 St & Amsterdam Ave,40.8067581,-73.9607082,908,387,141,1293,143,1436,1,04/01/2018
656,3540,Morningside Ave & W 123 St,40.81,-73.9551508,239,147,70,384,72,456,1,04/01/2018
657,3541,Amsterdam Ave & W 125 St,40.813358,-73.956461,208,97,48,284,69,353,1,04/01/2018
658,3542,Amsterdam Ave & W 119 St,40.8086249,-73.9596214,564,177,59,752,48,800,1,04/01/2018
659,3543,Morningside Dr & Amsterdam Ave,40.81028506306003,-73.95736455917357,178,67,18,228,35,263,1,04/01/2018
660,3544,Underhill Ave & Pacific St,40.6804836,-73.9646795,443,163,29,612,23,635,1,04/01/2018
661,3545,Broadway & W 122 St,40.8120562,-73.9612547,352,99,58,423,86,509,1,04/01/2018
662,3546,Pacific St & Classon Ave,40.67919439999999,-73.95879029999999,193,53,36,250,32,282,1,04/01/2018
663,3547,Broadway & Moylan Pl,40.8143256,-73.9590255,533,276,110,746,173,919,1,04/01/2018
664,3549,Grand Ave & Bergen St,40.678045000000004,-73.962408,520,181,39,705,35,740,1,04/01/2018
665,3551,3 Ave & E 112 St,40.795508,-73.94160600000001,166,48,15,215,14,229,1,04/01/2018
666,3552,W 113 St & Broadway,40.805973,-73.964928,563,283,100,792,154,946,1,04/01/2018
667,3553,Frederick Douglass Blvd & W 112 St,40.801694,-73.957145,829,376,169,1194,180,1374,1,04/01/2018
668,3554,Vernon Blvd & 41 Rd,40.7552433,-73.94856779999999,124,47,78,132,117,249,1,04/01/2018
669,3555,28 St & 41 Ave,40.751047,-73.93796999999999,388,119,51,515,43,558,1,04/01/2018
670,3556,24 St & 41 Ave,40.752708500000004,-73.9397405,286,57,48,334,57,391,1,04/01/2018
671,3557,40 Ave & 9 St,40.75742,-73.945133,20,26,15,40,21,61,1,04/01/2018
672,3558,Bergen St & Vanderbilt Ave,40.6794388,-73.96804379999999,556,323,94,858,115,973,1,04/01/2018
673,3559,21 St & 38 Ave,40.7576314,-73.9391224,44,26,12,68,14,82,1,04/01/2018
674,3560,28 St & 38 Ave,40.754876,-73.934326,202,56,36,258,36,294,1,04/01/2018
675,3561,37 Ave & 35 St,40.7531106,-73.9279917,201,56,15,250,22,272,1,04/01/2018
676,3562,Classon Ave & St Marks Ave,40.676519799999994,-73.9596082,511,208,43,720,42,762,1,04/01/2018
677,3563,28 St & 36 Ave,40.757186,-73.93271899999999,249,65,37,336,15,351,1,04/01/2018
678,3564,21 St & 36 Ave,40.760185299999996,-73.9362726,37,31,18,66,20,86,1,04/01/2018
679,3565,36 Ave & 10 St,40.7614376,-73.9411265,188,78,27,247,46,293,1,04/01/2018
680,3566,Crescent St & 35 Ave,40.7596276,-73.93214549999999,141,119,36,275,21,296,1,04/01/2018
681,3567,11 St & 35 Ave,40.76274420000001,-73.9391141,68,7,4,70,9,79,1,04/01/2018
682,3568,34 St & 35 Ave,40.756933200000006,-73.92622309999999,310,103,53,439,27,466,1,04/01/2018
683,3569,Franklin Ave & St Marks Ave,40.6758324,-73.95616770000001,438,231,52,648,73,721,1,04/01/2018
684,3570,35 Ave & 37 St,40.7557327,-73.92366109999999,255,87,72,363,51,414,1,04/01/2018
685,3571,Bedford Ave & Bergen St,40.676368,-73.95291800000001,395,171,69,573,62,635,1,04/01/2018
686,3572,34 Ave & 38 St,40.756913,-73.921631,420,153,42,580,35,615,1,04/01/2018
687,3573,35 St & 34 Ave,40.7580583,-73.92427509999999,173,51,17,224,17,241,1,04/01/2018
688,3574,Prospect Pl & Underhill Ave,40.6769694,-73.96579,409,158,56,581,42,623,1,04/01/2018
689,3575,Crescent St & 34 Ave,40.76108,-73.930562,164,73,29,243,23,266,1,04/01/2018
690,3576,Park Pl & Vanderbilt Ave,40.6767,-73.969024,716,400,72,1107,81,1188,1,04/01/2018
691,3577,34 Ave & 21 St,40.762813799999996,-73.9342862,157,68,16,230,11,241,1,04/01/2018
692,3578,Park Pl & Franklin Ave,40.67418060000001,-73.95649470000001,208,133,15,332,24,356,1,04/01/2018
693,3579,Sterling Pl & Bedford Ave,40.672695000000004,-73.954131,315,119,28,424,38,462,1,04/01/2018
694,3580,St Johns Pl & Washington Ave,40.6737236,-73.9631611,480,174,50,642,62,704,1,04/01/2018
695,3581,Underhill Ave & Lincoln Pl,40.674012299999994,-73.9671457,507,289,97,810,83,893,1,04/01/2018
696,3582,Lincoln Pl & Classon Ave,40.672168299999996,-73.9609,193,103,31,295,32,327,1,04/01/2018
697,3583,Eastern Pkwy & Washington Ave,40.6716493,-73.9631145,461,284,220,697,268,965,1,04/01/2018
698,3584,Eastern Pkwy & Franklin Ave,40.670776700000005,-73.9576801,585,250,101,831,105,936,1,04/01/2018
699,3585,Union St & Bedford Ave,40.6691783,-73.9554162,118,50,13,160,21,181,1,04/01/2018
700,3586,34 Ave & 13 St,40.763875299999995,-73.9364848,50,37,7,91,3,94,1,04/01/2018
701,3587,Carroll St & Washington Ave,40.6686744,-73.9618148,148,92,41,232,49,281,1,04/01/2018
702,3588,Vernon Blvd & 10 St,40.7671863,-73.9373554,208,95,65,269,99,368,1,04/01/2018
703,3589,Broadway & 12 St,40.7668,-73.93477740000002,176,48,13,216,21,237,1,04/01/2018
704,3590,Carroll St & Franklin Ave,40.6679411,-73.9588,64,41,15,105,15,120,1,04/01/2018
705,3591,21 St & 31 Dr,40.7659,-73.930819,217,66,39,292,30,322,1,04/01/2018
706,3592,Crescent St & Broadway,40.7633589,-73.92864709999999,319,80,41,387,53,440,1,04/01/2018
707,3593,31 St & Broadway,40.761584,-73.925921,741,201,93,961,74,1035,1,04/01/2018
708,3595,35 St & Broadway,40.760339,-73.9222427,241,69,41,301,50,351,1,04/01/2018
709,3596,Sullivan Pl & Bedford Ave,40.6642406,-73.9574686,34,22,9,55,10,65,1,04/01/2018
710,3597,43 St & Broadway,40.7577284,-73.9166368,203,85,39,277,50,327,1,04/01/2018
711,3598,Newton Rd & 44 St,40.7595701,-73.91426779999999,133,82,25,211,29,240,1,04/01/2018
712,3599,Franklin Ave & Empire Blvd,40.663140000000006,-73.96056949999999,384,192,181,492,265,757,1,04/01/2018
713,3601,Sterling St & Bedford Ave,40.6627059,-73.9569115,100,36,27,125,38,163,1,04/01/2018
714,3602,31 Ave & 34 St,40.763154,-73.920827,353,170,72,533,62,595,1,04/01/2018
715,3603,31 Ave & 30 St,40.7647,-73.9240312,306,95,30,377,54,431,1,04/01/2018
716,3604,Rogers Ave & Sterling St,40.6630619,-73.95387459999999,172,60,12,207,37,244,1,04/01/2018
717,3605,31 Ave & Crescent St,40.765834600000005,-73.9265474,310,82,26,403,15,418,1,04/01/2018
718,3606,49 Ave & 21 St,40.74252,-73.948852,217,35,7,248,11,259,1,04/01/2018
719,3607,31 Ave & 14 St,40.7682,-73.9322662,149,51,23,208,15,223,1,04/01/2018
720,3608,5 St & 51 Ave,40.7423737,-73.9566,188,42,14,211,33,244,1,04/01/2018
721,3609,Vernon Blvd & 31 Ave,40.7692475,-73.93545040000001,163,81,60,245,59,304,1,04/01/2018
722,3610,Vernon Blvd & 30 Rd,40.770845,-73.93417099999999,279,84,27,327,63,390,1,04/01/2018
723,3611,Vernon Blvd & 47 Rd,40.7449067,-73.9534573,364,135,96,496,99,595,1,04/01/2018
724,3612,30 Ave & 21 St,40.77037429999999,-73.9286078,150,21,19,166,24,190,1,04/01/2018
725,3613,Center Blvd & 48 Ave,40.745038,-73.957539,432,107,101,504,136,640,1,04/01/2018
726,3614,Crescent St & 30 Ave,40.768692,-73.9249574,314,84,71,415,54,469,1,04/01/2018
727,3615,44 Dr & 21 St,40.748000000000005,-73.94609270000001,450,138,75,574,89,663,1,04/01/2018
728,3616,Steinway St & 28 Ave,40.7656251,-73.9136695,308,137,41,427,59,486,1,04/01/2018
729,3617,28 Ave & 35 St,40.7671,-73.9169858,276,112,45,383,50,433,1,04/01/2018
730,3618,27 St & Hunter St,40.7485,-73.941275,265,74,13,322,30,352,1,04/01/2018
731,3619,Newtown Ave & 23 St,40.7713615,-73.9246145,212,71,28,275,36,311,1,04/01/2018
732,3620,11 St & 43 Ave,40.7519071,-73.94791190000001,8,2,2,12,0,12,1,04/01/2018
733,3621,27 Ave & 9 St,40.7739825,-73.93091340000001,116,53,18,159,28,187,1,04/01/2018
734,3622,E 128 St & Madison Ave,40.807559999999995,-73.93918199999999,247,55,17,301,18,319,1,04/01/2018
735,3623,W 120 St & Claremont Ave,40.8109494,-73.9634,440,168,73,567,114,681,1,04/01/2018
736,3625,28 St & 40 Ave,40.752575799999995,-73.9364281,126,31,26,161,22,183,1,04/01/2018
737,3628,Lenox Ave & W 117 St,40.8025566,-73.9490782,130,58,41,186,43,229,1,04/01/2018
738,3629,Adam Clayton Powell Blvd & W 126 St,40.809495347779475,-73.94776493310928,209,92,80,250,131,381,1,04/01/2018
739,3631,Crown St & Bedford Ave,40.666563000000004,-73.95674100000001,77,28,6,102,9,111,1,04/01/2018
740,3632,E 12 St & Avenue B,40.728048571362606,-73.97881150245668,2375,727,120,3107,115,3222,1,04/01/2018
741,3635,W 36 St & 9 Ave,40.754623240291046,-73.99516761302948,2025,506,185,2499,217,2716,1,04/01/2018
742,3637,Fulton St & Waverly Ave,40.68323865460341,-73.96599590778352,754,248,65,996,71,1067,1,04/01/2018
743,3641,Broadway & W 25 St,40.74286877312112,-73.98918628692627,4107,1200,626,5048,885,5933,1,04/01/2018
744,3643,E 41 St & 5 Ave,40.75272201381188,-73.98123621940613,865,172,81,1009,109,1118,1,04/01/2018
745,3644,Van Dyke St & Van Brunt St,40.67581622522832,-74.01488184928894,326,171,118,466,149,615,1,04/01/2018
746,3646,35 Ave & 10 St,40.763154819103725,-73.93985509872438,120,35,15,136,34,170,1,04/01/2018
747,3647,48 Ave & 30 Pl,40.74128309355993,-73.93725872039794,93,26,19,112,26,138,1,04/01/2018
748,3648,Flushing Ave & Vanderbilt Ave,40.69795031569544,-73.97077560424805,557,219,184,718,242,960,1,04/01/2018
749,3649,W 129 St & Convent Ave,40.81439443791581,-73.95324736833571,139,61,18,174,44,218,1,04/01/2018
750,3653,31 St & 35 Ave,40.75820464696758,-73.92832159996033,212,73,32,292,25,317,1,04/01/2018
751,3654,31 St & Northern Blvd,40.75186951421875,-73.93349289894103,183,35,12,208,22,230,1,04/01/2018
752,3656,E 2 St & Avenue A,40.72307749068673,-73.98583620786667,1952,662,155,2599,170,2769,1,04/01/2018
753,3658,W 18 St & 9 Ave,40.7435337324616,-74.00367558002472,1562,441,128,1981,150,2131,1,04/01/2018
754,3659,W 17 St & 9 Ave,40.7429489166009,-74.00413691997528,1554,429,250,1958,275,2233,1,04/01/2018
755,3660,W 16 St & 8 Ave,40.74102150900266,-74.001384973526,4271,1237,296,5493,311,5804,1,04/01/2018
756,3661,Montgomery St & Franklin Ave,40.666439306870814,-73.96055638790129,55,52,22,109,20,129,1,04/01/2018
757,3662,31 Ave & Steinway St,40.76129389728909,-73.916916847229,227,82,46,302,53,355,1,04/01/2018
758,3663,Sterling Pl & 7 Ave,40.67716489469059,-73.97382795810701,769,338,76,1123,60,1183,1,04/01/2018
759,3664,North Moore St & Greenwich St,40.72019521437465,-74.0103006362915,2145,377,237,2446,313,2759,1,04/01/2018
760,3668,Leonard St & Nassau Ave,40.7239567849954,-73.94984364509583,611,293,40,893,51,944,1,04/01/2018
761,3669,Henry St & W 9 St,40.67630357634183,-74.00314047932625,61,85,6,139,13,152,1,04/01/2018
762,3671,E 81 St & 2 Ave,40.77477944895728,-73.95427465438844,835,219,91,1037,108,1145,1,04/01/2018
763,3673,Dean St & Franklin Ave,40.67759206937376,-73.95563721656801,80,22,5,101,6,107,1,04/01/2018
764,3674,Jay St & York St,40.70140317257725,-73.98672670125961,1389,665,280,2021,313,2334,1,04/01/2018
765,3680,E 43 St & 5 Ave,40.754120810779256,-73.98025184869765,428,87,43,479,79,558,1,04/01/2018
0,72,W 52 St & 11 Ave,40.76727216,-73.99392888,1934,585,288,2388,419,2807,0,04/01/2018
1,79,Franklin St & W Broadway,40.71911552,-74.00666661,1473,519,144,1953,183,2136,0,04/01/2018
2,82,St James Pl & Pearl St,40.71117416,-74.00016545,433,209,136,634,144,778,0,04/01/2018
3,83,Atlantic Ave & Fort Greene Pl,40.68382604,-73.97632328,934,187,150,1133,138,1271,0,04/01/2018
4,119,Park Ave & St Edwards St,40.69608941,-73.97803415,163,82,18,240,23,263,0,04/01/2018
5,120,Lexington Ave & Classon Ave,40.68676793,-73.95928168,451,209,53,662,51,713,0,04/01/2018
6,127,Barrow St & Hudson St,40.73172428,-74.00674436,3174,971,249,4074,320,4394,0,04/01/2018
7,128,MacDougal St & Prince St,40.72710258,-74.00297088,3320,1287,317,4532,392,4924,0,04/01/2018
8,143,Clinton St & Joralemon St,40.69239502,-73.99337909,1057,609,79,1684,61,1745,0,04/01/2018
9,144,Nassau St & Navy St,40.69839895,-73.98068914,357,178,161,479,217,696,0,04/01/2018
10,146,Hudson St & Reade St,40.71625008,-74.0091059,1455,508,117,1940,140,2080,0,04/01/2018
11,150,E 2 St & Avenue C,40.720873600000004,-73.98085795,1557,660,63,2175,105,2280,0,04/01/2018
12,151,Cleveland Pl & Spring St,40.72210378668603,-73.99724900722505,3496,1277,588,4672,689,5361,0,04/01/2018
13,152,Warren St & Church St,40.71473993,-74.00910627,248,85,31,330,34,364,0,04/01/2018
14,157,Henry St & Atlantic Ave,40.69089272,-73.99612349,930,421,164,1353,162,1515,0,04/01/2018
15,161,LaGuardia Pl & W 3 St,40.72917025,-73.99810231,3237,1188,335,4376,384,4760,0,04/01/2018
16,164,E 47 St & 2 Ave,40.75323098,-73.97032517,1347,442,128,1783,134,1917,0,04/01/2018
17,167,E 39 St & 3 Ave,40.7489006,-73.97604882,2273,475,181,2746,183,2929,0,04/01/2018
18,168,W 18 St & 6 Ave,40.73971301,-73.99456405,3818,1305,227,5058,292,5350,0,04/01/2018
19,173,Broadway & W 49 St,40.76068327096592,-73.98452728986742,3209,654,542,3649,756,4405,0,04/01/2018
20,174,E 25 St & 1 Ave,40.7381765,-73.97738662,2044,814,142,2862,138,3000,0,04/01/2018
21,195,Liberty St & Broadway,40.70905623,-74.01043382,2004,555,274,2459,374,2833,0,04/01/2018
22,212,W 16 St & The High Line,40.74334935,-74.00681753,2127,806,432,2812,553,3365,0,04/01/2018
23,216,Columbia Heights & Cranberry St,40.70037867,-73.99548059,270,118,176,348,216,564,0,04/01/2018
24,217,Old Fulton St,40.70277159,-73.99383605,1317,583,986,1655,1231,2886,0,04/01/2018
25,223,W 13 St & 7 Ave,40.73781509,-73.99994661,82,25,4,108,3,111,0,04/01/2018
26,228,E 48 St & 3 Ave,40.7546011026,-73.971878855,1445,254,132,1672,159,1831,0,04/01/2018
27,229,Great Jones St,40.72743423,-73.99379025,4259,1388,252,5594,305,5899,0,04/01/2018
28,232,Cadman Plaza E & Tillary St,40.69597683,-73.99014892,359,211,551,352,769,1121,0,04/01/2018
29,236,St Marks Pl & 2 Ave,40.7284186,-73.98713956,2898,908,238,3794,250,4044,0,04/01/2018
30,237,E 11 St & 2 Ave,40.73047309,-73.98672378,2852,1018,258,3798,330,4128,0,04/01/2018
31,238,Bank St & Washington St,40.7361967,-74.00859207,437,179,55,611,60,671,0,04/01/2018
32,239,Willoughby St & Fleet St,40.69196566,-73.9813018,1249,594,78,1828,93,1921,0,04/01/2018
33,241,DeKalb Ave & S Portland Ave,40.68981035,-73.97493121,628,276,118,908,114,1022,0,04/01/2018
34,242,Carlton Ave & Flushing Ave,40.697787,-73.973736,692,234,92,900,118,1018,0,04/01/2018
35,243,Fulton St & Rockwell Pl,40.688226,-73.979382,809,340,27,1143,33,1176,0,04/01/2018
36,244,Willoughby Ave & Hall St,40.69196035,-73.96536851,734,339,83,1072,84,1156,0,04/01/2018
37,245,Myrtle Ave & St Edwards St,40.69327018,-73.97703874,262,150,98,404,106,510,0,04/01/2018
38,247,Perry St & Bleecker St,40.73535398,-74.00483091,1653,596,207,2170,286,2456,0,04/01/2018
39,248,Laight St & Hudson St,40.72185379,-74.00771779,646,199,68,814,99,913,0,04/01/2018
40,249,Harrison St & Hudson St,40.71870987,-74.0090009,969,321,59,1282,67,1349,0,04/01/2018
41,251,Mott St & Prince St,40.72317958,-73.99480012,2435,952,332,3339,380,3719,0,04/01/2018
42,252,MacDougal St & Washington Sq,40.73226398,-73.99852205,1870,636,252,2413,345,2758,0,04/01/2018
43,253,W 13 St & 5 Ave,40.73543934,-73.99453948,152,51,22,207,18,225,0,04/01/2018
44,254,W 11 St & 6 Ave,40.73532427,-73.99800419,2977,1152,232,4122,239,4361,0,04/01/2018
45,257,Lispenard St & Broadway,40.71939226,-74.00247214,1352,428,162,1731,211,1942,0,04/01/2018
46,258,DeKalb Ave & Vanderbilt Ave,40.68940747,-73.96885458,701,279,114,974,120,1094,0,04/01/2018
47,259,South St & Whitehall St,40.70122128,-74.01234218,1314,431,301,1614,432,2046,0,04/01/2018
48,260,Broad St & Bridge St,40.70365182,-74.01167797,876,179,119,1078,96,1174,0,04/01/2018
49,261,Johnson St & Gold St,40.69474881,-73.98362464,724,199,109,915,117,1032,0,04/01/2018
50,262,Washington Park,40.6917823,-73.97372990000001,502,196,63,702,59,761,0,04/01/2018
51,264,Maiden Ln & Pearl St,40.70706456,-74.00731853,1163,328,114,1465,140,1605,0,04/01/2018
52,265,Stanton St & Chrystie St,40.72229346,-73.99147535,2419,774,328,3117,404,3521,0,04/01/2018
53,266,Avenue D & E 8 St,40.72368361,-73.97574813,784,340,80,1153,51,1204,0,04/01/2018
54,267,Broadway & W 36 St,40.75097711,-73.98765428,1985,507,287,2374,405,2779,0,04/01/2018
55,268,Howard St & Centre St,40.71910537,-73.99973337,2214,686,261,2818,343,3161,0,04/01/2018
56,270,Adelphi St & Myrtle Ave,40.69308257,-73.97178913,1075,350,43,1420,48,1468,0,04/01/2018
57,274,Lafayette Ave & Fort Greene Pl,40.68691865,-73.976682,992,409,110,1413,98,1511,0,04/01/2018
58,275,Washington Ave & Greene Ave,40.68650065,-73.96563307,487,146,37,628,42,670,0,04/01/2018
59,276,Duane St & Greenwich St,40.71748752,-74.0104554,1078,418,130,1489,137,1626,0,04/01/2018
60,278,Concord St & Bridge St,40.69766564,-73.98476437,317,139,133,418,171,589,0,04/01/2018
61,279,Peck Slip & Front St,40.707873,-74.00166999999999,1402,595,480,1839,638,2477,0,04/01/2018
62,280,E 10 St & 5 Ave,40.73331967,-73.99510132,370,149,40,528,31,559,0,04/01/2018
63,281,Grand Army Plaza & Central Park S,40.764397100000004,-73.97371465,3129,926,1738,3793,2000,5793,0,04/01/2018
64,282,Kent Ave & S 11 St,40.7076449441757,-73.96841526031494,636,391,349,934,442,1376,0,04/01/2018
65,284,Greenwich Ave & 8 Ave,40.7390169121,-74.0026376103,1473,410,73,1890,66,1956,0,04/01/2018
66,285,Broadway & E 14 St,40.73454567,-73.99074142,5156,1619,392,6689,478,7167,0,04/01/2018
67,289,Monroe St & Classon Ave,40.684568299999995,-73.95881081,206,178,43,388,39,427,0,04/01/2018
68,291,Madison St & Montgomery St,40.713126,-73.984844,923,326,100,1268,81,1349,0,04/01/2018
69,293,Lafayette St & E 8 St,40.73020660529954,-73.99102628231049,4512,1334,313,5809,350,6159,0,04/01/2018
70,295,Pike St & E Broadway,40.71406667,-73.99293911,1362,524,155,1900,141,2041,0,04/01/2018
71,296,Division St & Bowery,40.71413089,-73.99704679999999,1501,615,206,2092,230,2322,0,04/01/2018
72,297,E 15 St & 3 Ave,40.734232,-73.986923,2866,1050,189,3944,161,4105,0,04/01/2018
73,301,E 2 St & Avenue B,40.72217444,-73.98368779,2162,850,186,2957,241,3198,0,04/01/2018
74,302,Avenue D & E 3 St,40.72082834,-73.97793172,1205,602,58,1786,79,1865,0,04/01/2018
75,303,Mercer St & Spring St,40.72362738,-73.99949601,1969,804,324,2651,446,3097,0,04/01/2018
76,304,Broadway & Battery Pl,40.70463334,-74.01361706,2403,741,479,3011,612,3623,0,04/01/2018
77,305,E 58 St & 3 Ave,40.76095756,-73.96724467,2344,637,179,2927,233,3160,0,04/01/2018
78,306,Cliff St & Fulton St_1,40.70823502,-74.00530063,1190,297,128,1490,125,1615,0,04/01/2018
79,307,Canal St & Rutgers St,40.71427487,-73.98990025,2662,883,231,3546,230,3776,0,04/01/2018
80,308,St James Pl & Oliver St,40.71307916,-73.99851193,1234,333,189,1554,202,1756,0,04/01/2018
81,309,Murray St & West St,40.7149787,-74.013012,1577,537,404,2020,498,2518,0,04/01/2018
82,310,State St & Smith St,40.68926942,-73.98912867,919,327,88,1259,75,1334,0,04/01/2018
83,311,Norfolk St & Broome St,40.7172274,-73.98802084,1573,599,179,2096,255,2351,0,04/01/2018
84,312,Allen St & Stanton St,40.722055,-73.989111,2544,893,302,3351,388,3739,0,04/01/2018
85,313,Washington Ave & Park Ave,40.69610226,-73.96751037,703,226,100,919,110,1029,0,04/01/2018
86,314,Cadman Plaza West & Montague St,40.69383,-73.990539,805,398,109,1213,99,1312,0,04/01/2018
87,315,South St & Gouverneur Ln,40.70355377,-74.00670227,2213,845,469,2907,620,3527,0,04/01/2018
88,316,Fulton St & William St,40.70955958,-74.00653609,1115,296,124,1382,153,1535,0,04/01/2018
89,317,E 6 St & Avenue B,40.72453734,-73.98185424,2155,868,86,3004,105,3109,0,04/01/2018
90,319,Fulton St & Broadway,40.711065999999995,-74.009447,1944,477,411,2343,489,2832,0,04/01/2018
91,320,Leonard St & Church St,40.717571,-74.005549,1255,427,86,1649,119,1768,0,04/01/2018
92,321,Cadman Plaza E & Red Cross Pl,40.69991755,-73.98971773,1020,377,485,1282,600,1882,0,04/01/2018
93,322,Clinton St & Tillary St,40.696191999999996,-73.991218,563,234,397,713,481,1194,0,04/01/2018
94,323,Lawrence St & Willoughby St,40.69236178,-73.98631746,1560,405,119,1950,134,2084,0,04/01/2018
95,324,DeKalb Ave & Hudson Ave,40.689888,-73.981013,1574,674,126,2249,125,2374,0,04/01/2018
96,325,E 19 St & 3 Ave,40.73624527,-73.98473765,2390,768,92,3161,89,3250,0,04/01/2018
97,326,E 11 St & 1 Ave,40.72953837,-73.98426726,2521,919,198,3408,230,3638,0,04/01/2018
98,327,Vesey Pl & River Terrace,40.715337899999994,-74.01658354,3246,834,444,3961,563,4524,0,04/01/2018
99,328,Watts St & Greenwich St,40.72405549,-74.00965965,1845,539,161,2300,245,2545,0,04/01/2018
100,330,Reade St & Broadway,40.71450451,-74.00562789,1304,395,160,1643,216,1859,0,04/01/2018
101,331,Pike St & Monroe St,40.71173107,-73.99193043,834,299,163,1135,161,1296,0,04/01/2018
102,332,Cherry St,40.71219906,-73.97948148,908,451,187,1272,274,1546,0,04/01/2018
103,334,W 20 St & 7 Ave,40.74238787,-73.99726235,2293,652,114,2953,106,3059,0,04/01/2018
104,335,Washington Pl & Broadway,40.72903917,-73.99404649,2659,725,156,3387,153,3540,0,04/01/2018
105,336,Sullivan St & Washington Sq,40.73047747,-73.99906065,2713,819,271,3470,333,3803,0,04/01/2018
106,337,Old Slip & Front St,40.703799200000006,-74.00838676,910,221,111,1124,118,1242,0,04/01/2018
107,339,Avenue D & E 12 St,40.72580614,-73.97422494,530,234,44,756,52,808,0,04/01/2018
108,340,Madison St & Clinton St,40.71269042,-73.98776323,916,407,152,1381,94,1475,0,04/01/2018
109,341,Stanton St & Mangin St,40.71782143,-73.97628939,444,210,38,649,43,692,0,04/01/2018
110,342,Columbia St & Rivington St,40.71739973,-73.98016555,1059,539,80,1606,72,1678,0,04/01/2018
111,343,Clinton Ave & Flushing Ave,40.69794,-73.96986848,481,180,213,619,255,874,0,04/01/2018
112,344,Monroe St & Bedford Ave,40.6851443,-73.95380904,451,277,45,731,42,773,0,04/01/2018
113,345,W 13 St & 6 Ave,40.73649403,-73.99704374,290,82,9,374,7,381,0,04/01/2018
114,346,Bank St & Hudson St,40.73652889,-74.00618026,2488,1020,323,3405,426,3831,0,04/01/2018
115,347,Greenwich St & W Houston St,40.728846000000004,-74.00859100000001,2884,841,265,3640,350,3990,0,04/01/2018
116,349,Rivington St & Ridge St,40.71850211,-73.98329859,1114,347,133,1427,167,1594,0,04/01/2018
117,350,Clinton St & Grand St,40.71559509,-73.9870295,1441,601,178,2051,169,2220,0,04/01/2018
118,351,Front St & Maiden Ln,40.70530954,-74.00612572,1213,318,158,1510,179,1689,0,04/01/2018
119,353,S Portland Ave & Hanson Pl,40.68539567,-73.97431458,484,218,55,704,53,757,0,04/01/2018
120,354,Emerson Pl & Myrtle Ave,40.69363137,-73.96223558,724,257,89,983,87,1070,0,04/01/2018
121,355,Bayard St & Baxter St,40.71602118,-73.99974372,1757,548,324,2293,336,2629,0,04/01/2018
122,356,Bialystoker Pl & Delancey St,40.71622644,-73.98261206,719,312,86,1024,93,1117,0,04/01/2018
123,357,E 11 St & Broadway,40.73261787,-73.99158043,1450,586,136,2013,159,2172,0,04/01/2018
124,358,Christopher St & Greenwich St,40.73291553,-74.00711384,4207,1419,441,5496,571,6067,0,04/01/2018
125,359,E 47 St & Park Ave,40.75510267,-73.97498696,4527,512,183,5064,158,5222,0,04/01/2018
126,360,William St & Pine St,40.70717936,-74.00887308,1086,280,83,1346,103,1449,0,04/01/2018
127,361,Allen St & Hester St,40.71605866,-73.99190759,2206,822,156,2986,198,3184,0,04/01/2018
128,362,Broadway & W 37 St,40.75172632,-73.98753523,1400,313,114,1630,197,1827,0,04/01/2018
129,363,West Thames St,40.70834698,-74.01713445,1714,759,285,2385,373,2758,0,04/01/2018
130,364,Lafayette Ave & Classon Ave,40.68900443,-73.96023854,696,255,74,936,89,1025,0,04/01/2018
131,365,Fulton St & Grand Ave,40.68223166,-73.9614583,517,223,53,741,52,793,0,04/01/2018
132,366,Clinton Ave & Myrtle Ave,40.693261,-73.968896,1200,401,53,1591,63,1654,0,04/01/2018
133,368,Carmine St & 6 Ave,40.73038599,-74.00214988,4439,1348,475,5640,622,6262,0,04/01/2018
134,369,Washington Pl & 6 Ave,40.73224119,-74.00026394,1969,616,211,2553,243,2796,0,04/01/2018
135,372,Franklin Ave & Myrtle Ave,40.694546087246025,-73.95801365375519,371,98,105,429,145,574,0,04/01/2018
136,373,Willoughby Ave & Walworth St,40.69331716,-73.95381995,311,116,41,422,46,468,0,04/01/2018
137,376,John St & William St,40.70862144,-74.00722156,1195,318,82,1497,98,1595,0,04/01/2018
138,377,6 Ave & Canal St,40.72243797,-74.00566443,2250,563,302,2748,367,3115,0,04/01/2018
139,379,W 31 St & 7 Ave,40.749156,-73.9916,4322,719,193,5018,216,5234,0,04/01/2018
140,380,W 4 St & 7 Ave S,40.73401143,-74.00293877,827,226,88,1064,77,1141,0,04/01/2018
141,382,University Pl & E 14 St,40.73492695,-73.99200509,4745,1634,344,6263,460,6723,0,04/01/2018
142,383,Greenwich Ave & Charles St,40.735238,-74.000271,3492,1057,292,4490,351,4841,0,04/01/2018
143,386,Centre St & Worth St,40.71494807,-74.00234482,1081,440,346,1414,453,1867,0,04/01/2018
144,387,Centre St & Chambers St,40.71273266,-74.0046073,2566,1010,2013,3015,2574,5589,0,04/01/2018
145,388,W 26 St & 10 Ave,40.749717753,-74.002950346,2091,744,192,2842,185,3027,0,04/01/2018
146,389,Broadway & Berry St,40.71044554,-73.96525063,879,429,178,1277,209,1486,0,04/01/2018
147,390,Duffield St & Willoughby St,40.69221589,-73.9842844,914,288,90,1194,98,1292,0,04/01/2018
148,391,Clark St & Henry St,40.69760127,-73.99344559,1086,340,96,1403,119,1522,0,04/01/2018
149,392,Jay St & Tech Pl,40.695065,-73.987167,1075,406,470,1377,574,1951,0,04/01/2018
150,393,E 5 St & Avenue C,40.72299208,-73.97995466,1226,458,48,1668,64,1732,0,04/01/2018
151,394,E 9 St & Avenue C,40.72521311,-73.97768752,1783,701,112,2507,89,2596,0,04/01/2018
152,396,Lefferts Pl & Franklin Ave,40.680342423,-73.9557689392,350,116,55,477,44,521,0,04/01/2018
153,397,Fulton St & Clermont Ave,40.68415748,-73.96922273,295,142,46,433,50,483,0,04/01/2018
154,398,Atlantic Ave & Furman St,40.69165183,-73.99997859999999,1012,477,388,1406,471,1877,0,04/01/2018
155,399,Lafayette Ave & St James Pl,40.68851534,-73.9647628,466,209,32,668,39,707,0,04/01/2018
156,400,Pitt St & Stanton St,40.71926081,-73.98178024,525,127,58,668,42,710,0,04/01/2018
157,401,Allen St & Rivington St,40.72019576,-73.98997825,2396,838,300,3202,332,3534,0,04/01/2018
158,402,Broadway & E 22 St,40.740343200000005,-73.98955109,6359,1895,478,8159,573,8732,0,04/01/2018
159,403,E 2 St & 2 Ave,40.72502876,-73.99069656,2253,833,210,3031,265,3296,0,04/01/2018
160,405,Washington St & Gansevoort St,40.739323,-74.008119,2543,1018,819,3317,1063,4380,0,04/01/2018
161,406,Hicks St & Montague St,40.69512845,-73.99595065,1018,383,179,1372,208,1580,0,04/01/2018
162,407,Henry St & Poplar St,40.700469,-73.991454,529,170,156,642,213,855,0,04/01/2018
163,408,Market St & Cherry St,40.71076228,-73.99400398,805,305,129,1102,137,1239,0,04/01/2018
164,409,DeKalb Ave & Skillman St,40.6906495,-73.95643107,308,159,107,498,76,574,0,04/01/2018
165,410,Suffolk St & Stanton St,40.72066442,-73.98517977,2600,823,291,3344,370,3714,0,04/01/2018
166,411,E 6 St & Avenue D,40.72228087,-73.97668709,1038,523,67,1530,98,1628,0,04/01/2018
167,412,Forsyth St & Canal St,40.715815500000005,-73.99422366,1978,759,480,2643,574,3217,0,04/01/2018
168,414,Pearl St & Anchorage Pl,40.70281858,-73.98765762,891,389,271,1204,347,1551,0,04/01/2018
169,415,Pearl St & Hanover Square,40.7047177,-74.00926027,1255,300,98,1542,111,1653,0,04/01/2018
170,416,Cumberland St & Lafayette Ave,40.68753406,-73.97265183,670,282,42,950,44,994,0,04/01/2018
171,417,Barclay St & Church St,40.71291224,-74.01020234,2725,576,364,3174,491,3665,0,04/01/2018
172,418,Front St & Gold St,40.70224,-73.982578,635,277,131,904,139,1043,0,04/01/2018
173,419,Carlton Ave & Park Ave,40.69580705,-73.97355569,374,164,29,543,24,567,0,04/01/2018
174,420,Clermont Ave & Lafayette Ave,40.68764484,-73.96968902,405,177,48,598,32,630,0,04/01/2018
175,421,Clermont Ave & Park Ave,40.69573398,-73.97129668,246,149,25,394,26,420,0,04/01/2018
176,422,W 59 St & 10 Ave,40.770513,-73.988038,1542,509,159,2056,154,2210,0,04/01/2018
177,423,W 54 St & 9 Ave,40.76584941,-73.98690506,1999,499,195,2408,285,2693,0,04/01/2018
178,426,West St & Chambers St,40.71754834,-74.01322069,3742,1733,1083,5169,1389,6558,0,04/01/2018
179,427,Bus Slip & State St,40.701907,-74.013942,1019,321,401,1207,534,1741,0,04/01/2018
180,432,E 7 St & Avenue A,40.72621788,-73.98379855,3672,1092,230,4739,255,4994,0,04/01/2018
181,433,E 13 St & Avenue A,40.72955361,-73.98057249,2870,736,149,3618,137,3755,0,04/01/2018
182,435,W 21 St & 6 Ave,40.74173969,-73.99415556,5923,2215,302,8134,306,8440,0,04/01/2018
183,436,Hancock St & Bedford Ave,40.68216564,-73.95399026,231,104,80,355,60,415,0,04/01/2018
184,437,Macon St & Nostrand Ave,40.6809833854,-73.9500479759,853,209,50,1081,31,1112,0,04/01/2018
185,438,St Marks Pl & 1 Ave,40.72779126,-73.98564945,2874,1007,207,3841,247,4088,0,04/01/2018
186,439,E 4 St & 2 Ave,40.726280700000004,-73.98978041,2969,1046,221,3976,260,4236,0,04/01/2018
187,440,E 45 St & 3 Ave,40.75255434,-73.97282625,1828,344,140,2164,148,2312,0,04/01/2018
188,441,E 52 St & 2 Ave,40.756014,-73.967416,2134,598,202,2679,255,2934,0,04/01/2018
189,442,W 27 St & 7 Ave,40.746646999999996,-73.993915,3223,1111,168,4315,187,4502,0,04/01/2018
190,443,Bedford Ave & S 9 St,40.70853074,-73.96408963,156,67,71,208,86,294,0,04/01/2018
191,445,E 10 St & Avenue A,40.72740794,-73.98142006,3623,1046,295,4627,337,4964,0,04/01/2018
192,446,W 24 St & 7 Ave,40.74487634,-73.99529885,3441,1005,194,4430,210,4640,0,04/01/2018
193,447,8 Ave & W 52 St,40.76370739,-73.9851615,2790,545,316,3253,398,3651,0,04/01/2018
194,448,W 37 St & 10 Ave,40.75660359,-73.9979009,2270,580,117,2794,173,2967,0,04/01/2018
195,450,W 49 St & 8 Ave,40.76227205,-73.98788205,3674,587,199,4212,248,4460,0,04/01/2018
196,453,W 22 St & 8 Ave,40.74475148,-73.99915362,3379,991,257,4370,257,4627,0,04/01/2018
197,454,E 51 St & 1 Ave,40.75455731,-73.96592976,1098,328,104,1389,141,1530,0,04/01/2018
198,455,1 Ave & E 44 St,40.75001986,-73.96905301,1473,540,278,1977,314,2291,0,04/01/2018
199,456,E 53 St & Madison Ave,40.75971079999999,-73.97402311,1732,280,177,2002,187,2189,0,04/01/2018
200,457,Broadway & W 58 St,40.76695317,-73.98169333,3614,1294,876,4639,1145,5784,0,04/01/2018
201,458,11 Ave & W 27 St,40.751396,-74.00522600000001,2755,844,465,3462,602,4064,0,04/01/2018
202,459,W 20 St & 11 Ave,40.746745000000004,-74.007756,3754,1335,510,4900,699,5599,0,04/01/2018
203,460,S 4 St & Wythe Ave,40.71285887,-73.96590294,1473,702,267,2107,335,2442,0,04/01/2018
204,461,E 20 St & 2 Ave,40.73587678,-73.98205027,2723,809,185,3536,181,3717,0,04/01/2018
205,462,W 22 St & 10 Ave,40.74691959,-74.00451887,3629,1138,450,4613,604,5217,0,04/01/2018
206,465,Broadway & W 41 St,40.75513557,-73.98658032,3862,846,472,4484,696,5180,0,04/01/2018
207,466,W 25 St & 6 Ave,40.74395411,-73.99144871,3084,841,147,3864,208,4072,0,04/01/2018
208,467,Dean St & 4 Ave,40.68312489,-73.97895137,1299,451,113,1771,92,1863,0,04/01/2018
209,468,Broadway & W 56 St,40.7652654,-73.98192338,2609,658,328,3146,449,3595,0,04/01/2018
210,469,Broadway & W 53 St,40.76344058,-73.98268129,1964,402,228,2335,259,2594,0,04/01/2018
211,470,W 20 St & 8 Ave,40.74345335,-74.00004031,2060,612,131,2667,136,2803,0,04/01/2018
212,471,Grand St & Havemeyer St,40.71286844,-73.95698119,731,297,139,1021,146,1167,0,04/01/2018
213,472,E 32 St & Park Ave,40.745712100000006,-73.98194829,3406,785,163,4217,137,4354,0,04/01/2018
214,473,Rivington St & Chrystie St,40.72110063,-73.99192540000001,1314,537,258,1807,302,2109,0,04/01/2018
215,474,5 Ave & E 29 St,40.7451677,-73.98683077,2866,784,222,3566,306,3872,0,04/01/2018
216,476,E 31 St & 3 Ave,40.74394314,-73.97966069,2559,686,172,3272,145,3417,0,04/01/2018
217,477,W 41 St & 8 Ave,40.75640548,-73.9900262,5338,967,324,6281,348,6629,0,04/01/2018
218,478,11 Ave & W 41 St,40.76030096,-73.99884222,2510,567,212,2999,290,3289,0,04/01/2018
219,479,9 Ave & W 45 St,40.76019252,-73.9912551,3292,741,327,3967,393,4360,0,04/01/2018
220,480,W 53 St & 10 Ave,40.76669671,-73.99061728,2254,527,102,2755,128,2883,0,04/01/2018
221,481,S 3 St & Bedford Ave,40.71260486,-73.96264403,888,377,196,1227,234,1461,0,04/01/2018
222,482,W 15 St & 7 Ave,40.73935542,-73.99931783,4295,1216,245,5502,254,5756,0,04/01/2018
223,483,E 12 St & 3 Ave,40.73223272,-73.98889957,3238,944,194,4165,211,4376,0,04/01/2018
224,484,W 44 St & 5 Ave,40.75500254,-73.98014437,2493,394,193,2839,241,3080,0,04/01/2018
225,485,W 37 St & 5 Ave,40.75038009,-73.98338988,2439,530,195,2887,277,3164,0,04/01/2018
226,486,Broadway & W 29 St,40.7462009,-73.98855723,2952,867,303,3706,416,4122,0,04/01/2018
227,487,E 20 St & FDR Drive,40.73314259,-73.97573881,2506,980,141,3430,197,3627,0,04/01/2018
228,490,8 Ave & W 33 St,40.751551,-73.993934,5194,854,318,5980,386,6366,0,04/01/2018
229,491,E 24 St & Park Ave S,40.74096374,-73.98602213,3462,827,184,4275,198,4473,0,04/01/2018
230,492,W 33 St & 7 Ave,40.75019995,-73.99093085,4615,592,386,5193,400,5593,0,04/01/2018
231,494,W 26 St & 8 Ave,40.74734825,-73.99723551,3020,788,188,3768,228,3996,0,04/01/2018
232,495,W 47 St & 10 Ave,40.76269882,-73.99301222,2350,502,156,2835,173,3008,0,04/01/2018
233,496,E 16 St & 5 Ave,40.73726186,-73.99238967,3293,1317,242,4552,300,4852,0,04/01/2018
234,497,E 17 St & Broadway,40.73704984,-73.99009296,6314,2116,599,8261,768,9029,0,04/01/2018
235,498,Broadway & W 32 St,40.74854862,-73.98808416,3248,671,268,3855,332,4187,0,04/01/2018
236,499,Broadway & W 60 St,40.76915505,-73.98191841,4062,1552,1182,5245,1551,6796,0,04/01/2018
237,500,Broadway & W 51 St,40.76228826,-73.98336183,1938,329,308,2243,332,2575,0,04/01/2018
238,501,FDR Drive & E 35 St,40.744219,-73.97121214,2377,658,344,2932,447,3379,0,04/01/2018
239,502,Henry St & Grand St,40.714215,-73.981346,1649,800,95,2446,98,2544,0,04/01/2018
240,503,E 20 St & Park Ave,40.73827428,-73.98751968,854,296,71,1112,109,1221,0,04/01/2018
241,504,1 Ave & E 16 St,40.73221853,-73.98165557,3749,1188,191,4968,160,5128,0,04/01/2018
242,505,6 Ave & W 33 St,40.74901271,-73.98848395,3853,1064,603,4758,762,5520,0,04/01/2018
243,507,E 25 St & 2 Ave,40.73912601,-73.97973776,2927,848,213,3826,162,3988,0,04/01/2018
244,508,W 46 St & 11 Ave,40.76341379,-73.99667444,1856,557,319,2374,358,2732,0,04/01/2018
245,509,9 Ave & W 22 St,40.7454973,-74.00197139,3362,923,245,4220,310,4530,0,04/01/2018
246,513,W 56 St & 10 Ave,40.768254,-73.988639,1688,272,146,1953,153,2106,0,04/01/2018
247,514,12 Ave & W 40 St,40.76087502,-74.00277668,3323,1500,1264,4308,1779,6087,0,04/01/2018
248,515,W 43 St & 10 Ave,40.76009437,-73.99461843,2506,535,153,3008,186,3194,0,04/01/2018
249,516,E 47 St & 1 Ave,40.75206862,-73.96784384,928,353,109,1270,120,1390,0,04/01/2018
250,517,Pershing Square South,40.751581,-73.97791,3219,567,139,3768,157,3925,0,04/01/2018
251,518,E 39 St & 2 Ave,40.74780373,-73.97344190000001,3101,610,237,3654,294,3948,0,04/01/2018
252,519,Pershing Square North,40.751872999999996,-73.97770600000001,10048,1355,509,11275,637,11912,0,04/01/2018
253,520,W 52 St & 5 Ave,40.75992262,-73.97648516,2305,462,404,2720,451,3171,0,04/01/2018
254,522,E 51 St & Lexington Ave,40.75714758,-73.97207836,1745,283,187,2039,176,2215,0,04/01/2018
255,523,W 38 St & 8 Ave,40.75466591,-73.99138152,4735,984,263,5666,316,5982,0,04/01/2018
256,524,W 43 St & 6 Ave,40.75527307,-73.98316936,2271,526,282,2750,329,3079,0,04/01/2018
257,525,W 34 St & 11 Ave,40.75594159,-74.0021163,1847,465,491,2140,663,2803,0,04/01/2018
258,526,E 33 St & 5 Ave,40.74765947,-73.98490707,2505,550,289,3001,343,3344,0,04/01/2018
259,527,E 33 St & 2 Ave,40.744023,-73.976056,3184,848,211,4001,242,4243,0,04/01/2018
260,528,2 Ave & E 31 St,40.74290902,-73.97706058,2308,615,131,2935,119,3054,0,04/01/2018
261,529,W 42 St & 8 Ave,40.75756989999999,-73.99098507,2942,617,226,3495,290,3785,0,04/01/2018
262,530,11 Ave & W 59 St,40.771522,-73.99054100000001,2474,840,274,3234,354,3588,0,04/01/2018
263,531,Forsyth St & Broome St,40.71893904,-73.99266288,2683,1024,243,3649,301,3950,0,04/01/2018
264,532,S 5 Pl & S 5 St,40.710451,-73.960876,1304,600,909,1721,1092,2813,0,04/01/2018
265,533,Broadway & W 38 St,40.75299641,-73.98721619,1739,442,188,2162,207,2369,0,04/01/2018
266,534,Water - Whitehall Plaza,40.70255065,-74.0127234,999,289,216,1236,268,1504,0,04/01/2018
267,536,1 Ave & E 30 St,40.74144387,-73.97536082,2469,907,194,3392,178,3570,0,04/01/2018
268,537,Lexington Ave & E 24 St,40.74025878,-73.98409214,3645,1055,153,4677,176,4853,0,04/01/2018
269,539,Metropolitan Ave & Bedford Ave,40.71534825,-73.96024116,1896,862,252,2712,298,3010,0,04/01/2018
270,540,Lexington Ave & E 29 St,40.74311555376486,-73.98215353488922,2699,717,144,3407,153,3560,0,04/01/2018
271,545,E 23 St & 1 Ave,40.736502,-73.97809472,3109,777,159,3880,165,4045,0,04/01/2018
272,546,E 30 St & Park Ave S,40.74444921,-73.98303529,2232,678,165,2896,179,3075,0,04/01/2018
273,2000,Front St & Washington St,40.70255088,-73.98940236,1495,640,478,2023,590,2613,0,04/01/2018
274,2001,Sands St & Navy St,40.699773,-73.979927,356,96,65,443,74,517,0,04/01/2018
275,2002,Wythe Ave & Metropolitan Ave,40.716887,-73.96319799999999,1552,791,249,2262,330,2592,0,04/01/2018
276,2003,1 Ave & E 18 St,40.73381219196632,-73.9805442094803,2586,824,114,3366,158,3524,0,04/01/2018
277,2005,Railroad Ave & Kay Ave,40.70531194,-73.97100056,115,14,3,127,5,132,0,04/01/2018
278,2006,Central Park S & 6 Ave,40.76590936,-73.97634151,2786,1277,2404,3179,3288,6467,0,04/01/2018
279,2008,Little West St & 1 Pl,40.70569254,-74.01677685,1999,836,806,2547,1094,3641,0,04/01/2018
280,2009,Catherine St & Monroe St,40.71117444,-73.99682619,981,368,170,1398,121,1519,0,04/01/2018
281,2010,Grand St & Greene St,40.72165481,-74.00234737,1916,620,296,2473,359,2832,0,04/01/2018
282,2012,E 27 St & 1 Ave,40.739445,-73.97680600000001,1650,590,136,2302,74,2376,0,04/01/2018
283,2021,W 45 St & 8 Ave,40.75929124,-73.98859651,2751,575,398,3176,548,3724,0,04/01/2018
284,2022,E 60 St & York Ave,40.759107,-73.959223,441,167,96,545,159,704,0,04/01/2018
285,2023,E 55 St & Lexington Ave,40.75968085,-73.97031366,1363,195,114,1578,94,1672,0,04/01/2018
286,3002,South End Ave & Liberty St,40.711512,-74.01575600000001,3209,1253,790,4155,1097,5252,0,04/01/2018
